Event,Latitude,Longitude,Country,State,County,Website
Aberbeeg parkrun,51.711165,-3.144286,United Kingdom,Wales,Blaenau Gwent,https://www.parkrun.org.uk/aberbeeg
Aberdare parkrun,51.718796,-3.460089,United Kingdom,Wales,Rhondda Cynon Taf,https://www.parkrun.org.uk/aberdare
Aberdeen parkrun,57.173898,-2.086256,United Kingdom,Scotland,Aberdeen City,https://www.parkrun.org.uk/aberdeen
Aberystwyth parkrun,52.414546,-4.080401,United Kingdom,Wales,Ceredigion,https://www.parkrun.org.uk/aberystwyth
Abingdon parkrun,51.667957,-1.277429,United Kingdom,England,Oxfordshire,https://www.parkrun.org.uk/abingdon
Agnew parkrun,54.908188,-5.0349,United Kingdom,Scotland,Dumfries and Galloway,https://www.parkrun.org.uk/agnew
"Albert parkrun, Middlesbrough",54.564972,-1.231788,United Kingdom,England,Middlesbrough,https://www.parkrun.org.uk/albert
Aldenham parkrun,51.647953,-0.316507,United Kingdom,England,Hertfordshire,https://www.parkrun.org.uk/aldenham
Alderford Lake parkrun,52.953181,-2.675436,United Kingdom,England,Shropshire,https://www.parkrun.org.uk/alderfordlake
Alderley Park parkrun,53.2793,-2.231854,United Kingdom,England,Cheshire East,https://www.parkrun.org.uk/alderleypark
"Alexandra parkrun, Moss Side",53.450142,-2.248827,United Kingdom,England,Manchester,https://www.parkrun.org.uk/alexandra
Alice Holt parkrun,51.168607,-0.83814,United Kingdom,England,Hampshire,https://www.parkrun.org.uk/aliceholt
Ally Pally parkrun,51.595936,-0.12233,United Kingdom,England,Greater London,https://www.parkrun.org.uk/allypally
Alness parkrun,57.694306,-4.256669,United Kingdom,Scotland,Highland,https://www.parkrun.org.uk/alness
Alton Water parkrun,51.974806,1.134021,United Kingdom,England,Suffolk,https://www.parkrun.org.uk/altonwater
Alvaston parkrun,52.906173,-1.440173,United Kingdom,England,Derby,https://www.parkrun.org.uk/alvaston
Ancholme Valley Way parkrun,53.553676,-0.496441,United Kingdom,England,North Lincolnshire,https://www.parkrun.org.uk/ancholmevalleyway
Andover parkrun,51.221092,-1.512766,United Kingdom,England,Hampshire,https://www.parkrun.org.uk/andover
Antrim parkrun,54.717078,-6.238818,United Kingdom,Northern Ireland,Antrim,https://www.parkrun.org.uk/antrim
Armagh parkrun,54.339812,-6.652951,United Kingdom,Northern Ireland,Armagh,https://www.parkrun.org.uk/armagh
Armley parkrun,53.800347,-1.590893,United Kingdom,England,Leeds,https://www.parkrun.org.uk/armley
Arrow Valley parkrun,52.29362,-1.906573,United Kingdom,England,Worcestershire,https://www.parkrun.org.uk/arrowvalley
Ashbourne Recreation Ground parkrun,53.018719,-1.727477,United Kingdom,England,Derbyshire,https://www.parkrun.org.uk/ashbournerecreationground
Ashford parkrun,51.14347,0.864218,United Kingdom,England,Kent,https://www.parkrun.org.uk/ashford
Ashton Court parkrun,51.443592,-2.639948,United Kingdom,England,North Somerset,https://www.parkrun.org.uk/ashtoncourt
Aviemore parkrun,57.205275,-3.818635,United Kingdom,Scotland,Highland,https://www.parkrun.org.uk/aviemore
Aylesbury parkrun,51.83162,-0.838394,United Kingdom,England,Buckinghamshire,https://www.parkrun.org.uk/aylesbury
Ayr parkrun,55.436189,-4.624316,United Kingdom,Scotland,South Ayrshire,https://www.parkrun.org.uk/ayr
Babbs Mill parkrun,52.489833,-1.746034,United Kingdom,England,Solihull,https://www.parkrun.org.uk/babbsmill
Banbury parkrun,52.068807,-1.332318,United Kingdom,England,Oxfordshire,https://www.parkrun.org.uk/banbury
"Bangor parkrun, Northern Ireland",54.660024,-5.661693,United Kingdom,Northern Ireland,Down,https://www.parkrun.org.uk/bangor
Banstead Woods parkrun,51.307648,-0.184225,United Kingdom,England,Surrey,https://www.parkrun.org.uk/banstead
Barclay parkrun,51.759056,-0.019442,United Kingdom,England,Hertfordshire,https://www.parkrun.org.uk/barclay
Barking parkrun,51.545894,0.087312,United Kingdom,England,Greater London,https://www.parkrun.org.uk/barking
Barnsley parkrun,53.544369,-1.486115,United Kingdom,England,Barnsley,https://www.parkrun.org.uk/barnsley
Barnstaple parkrun,51.072561,-4.053612,United Kingdom,England,Devon,https://www.parkrun.org.uk/barnstaple
Barrow parkrun,54.117706,-3.218855,United Kingdom,England,Cumbria,https://www.parkrun.org.uk/barrow
Barry Island parkrun,51.390202,-3.271371,United Kingdom,Wales,Vale of Glamorgan,https://www.parkrun.org.uk/barryisland
Bartley Park parkrun,50.914371,-1.509865,United Kingdom,England,Hampshire,https://www.parkrun.org.uk/bartleypark
Basildon parkrun,51.577778,0.499615,United Kingdom,England,Essex,https://www.parkrun.org.uk/basildon
Basingstoke parkrun,51.258831,-1.082035,United Kingdom,England,Hampshire,https://www.parkrun.org.uk/basingstoke
Bath Skyline parkrun,51.364717,-2.338425,United Kingdom,England,Bath and North East Somerset,https://www.parkrun.org.uk/bathskyline
Beacon parkrun,52.685891,-1.83863,United Kingdom,England,Staffordshire,https://www.parkrun.org.uk/beacon
Beckenham Place parkrun,51.41853,-0.01959,United Kingdom,England,Greater London,https://www.parkrun.org.uk/beckenhamplace
Beckton parkrun,51.51176,0.046542,United Kingdom,England,Greater London,https://www.parkrun.org.uk/beckton
Bedfont Lakes parkrun,51.440762,-0.451523,United Kingdom,England,Greater London,https://www.parkrun.org.uk/bedfont
Bedford parkrun,52.148125,-0.459366,United Kingdom,England,Bedford,https://www.parkrun.org.uk/bedford
Bedgebury Pinetum parkrun,51.071871,0.450168,United Kingdom,England,Kent,https://www.parkrun.org.uk/bedgeburypinetum
Bedworth parkrun,52.476054,-1.47027,United Kingdom,England,Warwickshire,https://www.parkrun.org.uk/bedworth
Beeston parkrun,52.913592,-1.201737,United Kingdom,England,Nottinghamshire,https://www.parkrun.org.uk/beeston
Belfast Victoria parkrun,54.608785,-5.881573,United Kingdom,Northern Ireland,Belfast,https://www.parkrun.org.uk/belfastvictoria
Belton House parkrun,52.942743,-0.620021,United Kingdom,England,Lincolnshire,https://www.parkrun.org.uk/beltonhouse
Belvoir Castle parkrun,52.894882,-0.786835,United Kingdom,England,Leicestershire,https://www.parkrun.org.uk/belvoircastle
Berkeley Green parkrun,51.690962,-2.497513,United Kingdom,England,Gloucestershire,https://www.parkrun.org.uk/berkeleygreen
Bestwood Village parkrun,53.022132,-1.171188,United Kingdom,England,Nottinghamshire,https://www.parkrun.org.uk/bestwoodvillage
Bethlem Royal Hospital parkrun,51.385332,-0.029969,United Kingdom,England,Greater London,https://www.parkrun.org.uk/bethlemroyalhospital
Bevendean Down parkrun,50.844709,-0.107027,United Kingdom,England,Brighton and Hove,https://www.parkrun.org.uk/bevendeandown
Beverley Westwood parkrun,53.840255,-0.440675,United Kingdom,England,East Yorkshire,https://www.parkrun.org.uk/beverleywestwood
Bexley parkrun,51.455132,0.113254,United Kingdom,England,Greater London,https://www.parkrun.org.uk/bexley
Bicester parkrun,51.891101,-1.146866,United Kingdom,England,Oxfordshire,https://www.parkrun.org.uk/bicester
Bideford parkrun,51.024075,-4.204316,United Kingdom,England,Devon,https://www.parkrun.org.uk/bideford
Billericay parkrun,51.632966,0.417446,United Kingdom,England,Essex,https://www.parkrun.org.uk/billericay
Birkenhead parkrun,53.394807,-3.051658,United Kingdom,England,Wirral,https://www.parkrun.org.uk/birkenhead
Black Park parkrun,51.540329,-0.5476,United Kingdom,England,Buckinghamshire,https://www.parkrun.org.uk/blackpark
Blackhill parkrun,54.858315,-1.842366,United Kingdom,England,Durham,https://www.parkrun.org.uk/blackhill
Blackpool parkrun,53.811727,-3.023114,United Kingdom,England,Blackpool,https://www.parkrun.org.uk/blackpool
Blandford parkrun,50.863122,-2.16627,United Kingdom,England,Dorset,https://www.parkrun.org.uk/blandford
Blickling parkrun,52.813653,1.221671,United Kingdom,England,Norfolk,https://www.parkrun.org.uk/blickling
Blyth Links parkrun,55.106922,-1.499456,United Kingdom,England,Northumberland,https://www.parkrun.org.uk/blythlinks
Bognor Regis parkrun,50.786913,-0.668305,United Kingdom,England,West Sussex,https://www.parkrun.org.uk/bognorregis
Bolberry Down parkrun,50.23197,-3.842329,United Kingdom,England,Devon,https://www.parkrun.org.uk/bolberrydown
Bolton parkrun,53.574715,-2.395615,United Kingdom,England,Bolton,https://www.parkrun.org.uk/bolton
Boston parkrun,52.990156,-0.038556,United Kingdom,England,Lincolnshire,https://www.parkrun.org.uk/boston
Bournemouth parkrun,50.73362,-1.832732,United Kingdom,England,"Bournemouth, Christchurch and Poole Council",https://www.parkrun.org.uk/bournemouth
Bower Park parkrun,54.761523,-3.331244,United Kingdom,England,Cumbria,https://www.parkrun.org.uk/bowerpark
Bowling Park parkrun,53.778303,-1.739889,United Kingdom,England,Bradford,https://www.parkrun.org.uk/bowlingpark
Bracknell parkrun,51.390248,-0.776844,United Kingdom,England,Bracknell Forest,https://www.parkrun.org.uk/bracknell
Bradford parkrun,53.814575,-1.775102,United Kingdom,England,Bradford,https://www.parkrun.org.uk/bradford
Bramhall parkrun,53.374268,-2.160702,United Kingdom,England,Stockport,https://www.parkrun.org.uk/bramhall
Bramley parkrun,53.813432,-1.633461,United Kingdom,England,Leeds,https://www.parkrun.org.uk/bramley
Bramshall Road parkrun,52.895262,-1.871048,United Kingdom,England,Staffordshire,https://www.parkrun.org.uk/bramshallroad
Brandon Country Park parkrun,52.436339,0.625877,United Kingdom,England,Suffolk,https://www.parkrun.org.uk/brandoncountrypark
Braunstone parkrun,52.626129,-1.178681,United Kingdom,England,Leicester,https://www.parkrun.org.uk/braunstone
Brentwood parkrun,51.622582,0.266879,United Kingdom,England,Essex,https://www.parkrun.org.uk/brentwood
Bressay parkrun,60.158081,-1.119683,United Kingdom,Scotland,Shetland Islands,https://www.parkrun.org.uk/bressay
Brierley Forest parkrun,53.131155,-1.295214,United Kingdom,England,Nottinghamshire,https://www.parkrun.org.uk/brierleyforest
Brighouse parkrun,53.706086,-1.778156,United Kingdom,England,Calderdale,https://www.parkrun.org.uk/brighouse
Brighton & Hove parkrun,50.84214,-0.172498,United Kingdom,England,Brighton and Hove,https://www.parkrun.org.uk/brighton
Brixworth Country parkrun,52.318576,-0.895675,United Kingdom,England,Northamptonshire,https://www.parkrun.org.uk/brixworthcountry
Broadwater parkrun,51.197911,-0.598312,United Kingdom,England,Surrey,https://www.parkrun.org.uk/broadwater
Brockenhurst parkrun,50.808304,-1.642326,United Kingdom,England,Hampshire,https://www.parkrun.org.uk/brockenhurst
"Brockwell parkrun, Herne Hill",51.452538,-0.105464,United Kingdom,England,Greater London,https://www.parkrun.org.uk/brockwell
Bromley parkrun,51.386539,0.022874,United Kingdom,England,Greater London,https://www.parkrun.org.uk/bromley
Brooklands parkrun,51.346969,-0.471408,United Kingdom,England,Surrey,https://www.parkrun.org.uk/brooklands
Brueton parkrun,52.406754,-1.764593,United Kingdom,England,Solihull,https://www.parkrun.org.uk/brueton
Brundall parkrun,52.624133,1.417369,United Kingdom,England,Norfolk,https://www.parkrun.org.uk/brundall
Bryn Bach parkrun,51.781621,-3.269548,United Kingdom,Wales,Blaenau Gwent,https://www.parkrun.org.uk/brynbach
Brynaman parkrun,51.808402,-3.869719,United Kingdom,Wales,Neath Port Talbot,https://www.parkrun.org.uk/brynaman
Buckingham parkrun,51.998987,-0.984462,United Kingdom,England,Buckinghamshire,https://www.parkrun.org.uk/buckingham
Burgess parkrun,51.484536,-0.081024,United Kingdom,England,Greater London,https://www.parkrun.org.uk/burgess
Burnage parkrun,53.407152,-2.209185,United Kingdom,England,Stockport,https://www.parkrun.org.uk/burnage
Burnham and Highbridge parkrun,51.226679,-2.990243,United Kingdom,England,Somerset,https://www.parkrun.org.uk/burnhamandhighbridge
Burnham-on-Crouch parkrun,51.627409,0.810923,United Kingdom,England,Essex,https://www.parkrun.org.uk/burnhamoncrouch
Burnley parkrun,53.77834,-2.221555,United Kingdom,England,Lancashire,https://www.parkrun.org.uk/burnley
Bury Field parkrun,52.088015,-0.728725,United Kingdom,England,Milton Keynes,https://www.parkrun.org.uk/buryfield
Bury St Edmunds parkrun,52.224887,0.730183,United Kingdom,England,Suffolk,https://www.parkrun.org.uk/burystedmunds
Bushy parkrun,51.410992,-0.335791,United Kingdom,England,Greater London,https://www.parkrun.org.uk/bushy
California Country parkrun,51.379583,-0.867647,United Kingdom,England,Wokingham,https://www.parkrun.org.uk/californiacountry
"Camperdown parkrun, Dundee",56.483681,-3.030896,United Kingdom,Scotland,Dundee City,https://www.parkrun.org.uk/camperdown
Cannock Chase parkrun,52.73744,-1.99542,United Kingdom,England,Staffordshire,https://www.parkrun.org.uk/cannockchase
"Cannon Hill parkrun, Birmingham",52.452637,-1.89997,United Kingdom,England,Birmingham,https://www.parkrun.org.uk/cannonhill
Canons Park parkrun,51.612291,-0.296184,United Kingdom,England,Greater London,https://www.parkrun.org.uk/canonspark
Canterbury parkrun,51.299468,1.057002,United Kingdom,England,Kent,https://www.parkrun.org.uk/canterbury
Cardiff parkrun,51.49736,-3.207107,United Kingdom,Wales,Cardiff,https://www.parkrun.org.uk/cardiff
"Carlisle Park parkrun, Morpeth",55.165172,-1.691159,United Kingdom,England,Northumberland,https://www.parkrun.org.uk/carlislepark
Carlisle parkrun,54.886025,-2.963455,United Kingdom,England,Cumbria,https://www.parkrun.org.uk/carlisle
Carrickfergus parkrun,54.719992,-5.805285,United Kingdom,Northern Ireland,Antrim,https://www.parkrun.org.uk/carrickfergus
Cassiobury parkrun,51.657677,-0.406335,United Kingdom,England,Hertfordshire,https://www.parkrun.org.uk/cassiobury
Castle Park parkrun,51.87167,0.164165,United Kingdom,England,Hertfordshire,https://www.parkrun.org.uk/castlepark
Castlewellan parkrun,54.262147,-5.95386,United Kingdom,Northern Ireland,Down,https://www.parkrun.org.uk/castlewellan
Catford parkrun,51.44824,-0.00863,United Kingdom,England,Greater London,https://www.parkrun.org.uk/catford
Catton parkrun,52.656696,1.295507,United Kingdom,England,Norfolk,https://www.parkrun.org.uk/catton
"Central parkrun, Plymouth",50.385099,-4.151031,United Kingdom,England,Plymouth,https://www.parkrun.org.uk/centralplymouth
Centre Vale parkrun,53.718272,-2.102438,United Kingdom,England,Calderdale,https://www.parkrun.org.uk/centrevale
Chadderton Hall parkrun,53.554066,-2.158552,United Kingdom,England,Oldham,https://www.parkrun.org.uk/chaddertonhall
Chalkwell Beach parkrun,51.536925,0.676231,United Kingdom,England,Southend-on-Sea,https://www.parkrun.org.uk/chalkwellbeach
Charlton parkrun,51.480751,0.041628,United Kingdom,England,Greater London,https://www.parkrun.org.uk/charlton
Chasewater parkrun,52.661987,-1.944407,United Kingdom,England,Staffordshire,https://www.parkrun.org.uk/chasewater
Cheadle Hulme parkrun,53.379026,-2.210652,United Kingdom,England,Stockport,https://www.parkrun.org.uk/cheadlehulme
Chelmsford Central parkrun,51.732577,0.464945,United Kingdom,England,Essex,https://www.parkrun.org.uk/chelmsfordcentral
Cheltenham parkrun,51.911754,-2.07824,United Kingdom,England,Gloucestershire,https://www.parkrun.org.uk/cheltenham
Chester parkrun,53.207796,-2.902368,United Kingdom,England,Cheshire,https://www.parkrun.org.uk/chester
Chevin Forest parkrun,53.894133,-1.665858,United Kingdom,England,Leeds,https://www.parkrun.org.uk/chevinforest
Chichester parkrun,50.846182,-0.777535,United Kingdom,England,West Sussex,https://www.parkrun.org.uk/chichester
Chilton Fields parkrun,52.197076,0.975934,United Kingdom,England,Suffolk,https://www.parkrun.org.uk/chiltonfields
Chippenham parkrun,51.460469,-2.113119,United Kingdom,England,Wiltshire,https://www.parkrun.org.uk/chippenham
"Chippenham Playing Fields parkrun, Monmouth",51.80783,-2.718161,United Kingdom,Wales,Monmouthshire,https://www.parkrun.org.uk/chippenhamplayingfields
Chipping Norton School parkrun,51.93812,-1.54029,United Kingdom,England,Oxfordshire,https://www.parkrun.org.uk/chippingnortonschool
Chipping Sodbury parkrun,51.544366,-2.397165,United Kingdom,England,South Gloucestershire,https://www.parkrun.org.uk/chippingsodbury
Chopwell Wood parkrun,54.922026,-1.790884,United Kingdom,England,Gateshead,https://www.parkrun.org.uk/chopwellwood
Church Mead parkrun,51.667191,-0.614472,United Kingdom,England,Buckinghamshire,https://www.parkrun.org.uk/churchmead
Cirencester parkrun,51.711207,-1.99109,United Kingdom,England,Gloucestershire,https://www.parkrun.org.uk/cirencester
"Citypark parkrun, Craigavon",54.451093,-6.386002,United Kingdom,Northern Ireland,Armagh,https://www.parkrun.org.uk/citypark
Clacton Seafront parkrun,51.781574,1.142974,United Kingdom,England,Essex,https://www.parkrun.org.uk/clactonseafront
Clair parkrun,51.004322,-0.100143,United Kingdom,England,West Sussex,https://www.parkrun.org.uk/clair
Clapham Common parkrun,51.455873,-0.151331,United Kingdom,England,Greater London,https://www.parkrun.org.uk/claphamcommon
Clare Castle parkrun,52.076428,0.581882,United Kingdom,England,Suffolk,https://www.parkrun.org.uk/clarecastle
Cleethorpes parkrun,53.541552,-0.025384,United Kingdom,England,North East Lincolnshire,https://www.parkrun.org.uk/cleethorpes
Clevedon Salthouse Fields parkrun,51.434573,-2.866505,United Kingdom,England,North Somerset,https://www.parkrun.org.uk/clevedonsalthousefields
Cliffe Castle parkrun,53.874658,-1.913364,United Kingdom,England,Bradford,https://www.parkrun.org.uk/cliffecastle
Clifton parkrun,52.907144,-1.163033,United Kingdom,England,Nottingham,https://www.parkrun.org.uk/clifton
Clitheroe Castle parkrun,53.870346,-2.39478,United Kingdom,England,Lancashire,https://www.parkrun.org.uk/clitheroecastle
Clumber Park parkrun,53.268022,-1.065717,United Kingdom,England,Nottinghamshire,https://www.parkrun.org.uk/clumberpark
Coed Cefn-pwll-du parkrun,51.591855,-3.140954,United Kingdom,Wales,Caerphilly,https://www.parkrun.org.uk/coedcefnpwlldu
Colby parkrun,51.74064,-4.669924,United Kingdom,Wales,Pembrokeshire,https://www.parkrun.org.uk/colby
Colchester Castle parkrun,51.89167,0.902724,United Kingdom,England,Essex,https://www.parkrun.org.uk/colchestercastle
Coldham’s Common parkrun,52.206705,0.158881,United Kingdom,England,Cambridgeshire,https://www.parkrun.org.uk/coldhamscommon
Colin Glen parkrun,54.570723,-6.020504,United Kingdom,Northern Ireland,Belfast,https://www.parkrun.org.uk/colinglen
Colney Lane parkrun,52.621317,1.22519,United Kingdom,England,Norfolk,https://www.parkrun.org.uk/colneylane
Colwick parkrun,52.945171,-1.09786,United Kingdom,England,Nottingham,https://www.parkrun.org.uk/colwick
Comber parkrun,54.549593,-5.740415,United Kingdom,Northern Ireland,Down,https://www.parkrun.org.uk/comber
"Concord parkrun, Sheffield",53.424007,-1.441612,United Kingdom,England,Sheffield,https://www.parkrun.org.uk/concord
Congleton parkrun,53.160781,-2.229795,United Kingdom,England,Cheshire East,https://www.parkrun.org.uk/congleton
Conkers parkrun,52.739475,-1.543021,United Kingdom,England,Leicestershire,https://www.parkrun.org.uk/conkers
Conwy parkrun,53.279388,-3.808966,United Kingdom,Wales,Conwy,https://www.parkrun.org.uk/conwy
Conyngham Hall parkrun,54.011758,-1.479507,United Kingdom,England,North Yorkshire,https://www.parkrun.org.uk/conynghamhall
Corby parkrun,52.493879,-0.691774,United Kingdom,England,Northamptonshire,https://www.parkrun.org.uk/corby
Cosmeston Lakes parkrun,51.418047,-3.185615,United Kingdom,Wales,Vale of Glamorgan,https://www.parkrun.org.uk/cosmestonlakes
Cotsford Fields parkrun,54.759499,-1.30077,United Kingdom,England,Durham,https://www.parkrun.org.uk/cotsfordfields
Coventry parkrun,52.39172,-1.524026,United Kingdom,England,Coventry,https://www.parkrun.org.uk/coventry
Cranbrook Country Park parkrun,50.750746,-3.417858,United Kingdom,England,Devon,https://www.parkrun.org.uk/cranbrookcountrypark
Crane Park parkrun,51.441168,-0.372075,United Kingdom,England,Greater London,https://www.parkrun.org.uk/crane
Cranleigh parkrun,51.13819,-0.49151,United Kingdom,England,Surrey,https://www.parkrun.org.uk/cranleigh
Crathes Castle parkrun,57.061178,-2.440954,United Kingdom,Scotland,Aberdeenshire,https://www.parkrun.org.uk/crathescastle
Crawfordsburn Country parkrun,54.666682,-5.729434,United Kingdom,Northern Ireland,Down,https://www.parkrun.org.uk/crawfordsburncountry
Crewe parkrun,53.097388,-2.470556,United Kingdom,England,Cheshire East,https://www.parkrun.org.uk/crewe
Crichton parkrun,55.050773,-3.594589,United Kingdom,Scotland,Dumfries and Galloway,https://www.parkrun.org.uk/crichton
Crosby parkrun,53.48269,-3.046711,United Kingdom,England,Sefton,https://www.parkrun.org.uk/crosby
Cross Flatts parkrun,53.775754,-1.55757,United Kingdom,England,Leeds,https://www.parkrun.org.uk/crossflatts
Croxteth Hall parkrun,53.44217,-2.891774,United Kingdom,England,Liverpool,https://www.parkrun.org.uk/croxtethhall
Crystal Palace parkrun,51.419846,-0.065703,United Kingdom,England,Greater London,https://www.parkrun.org.uk/crystalpalace
Cusworth Hall parkrun,53.529479,-1.177617,United Kingdom,England,Doncaster,https://www.parkrun.org.uk/cusworthhall
Cwmbran parkrun,51.656234,-3.013498,United Kingdom,Wales,Torfaen County Borough,https://www.parkrun.org.uk/cwmbran
Cyclopark parkrun,51.419922,0.352561,United Kingdom,England,Kent,https://www.parkrun.org.uk/cyclopark
Dalby Forest parkrun,54.273821,-0.686599,United Kingdom,England,North Yorkshire,https://www.parkrun.org.uk/dalbyforest
Dallas Burston Polo Club parkrun,52.25721,-1.417387,United Kingdom,England,Warwickshire,https://www.parkrun.org.uk/dallasburstonpoloclub
Darlington South Park parkrun,54.51484,-1.560531,United Kingdom,England,Darlington,https://www.parkrun.org.uk/darlingtonsouthpark
Dartford Heath parkrun,51.435932,0.189929,United Kingdom,England,Kent,https://www.parkrun.org.uk/dartfordheath
Dartford parkrun,51.439141,0.220166,United Kingdom,England,Kent,https://www.parkrun.org.uk/dartford
Daventry parkrun,52.262374,-1.15732,United Kingdom,England,Northamptonshire,https://www.parkrun.org.uk/daventry
Dean Castle Country Park parkrun,55.622901,-4.482932,United Kingdom,Scotland,East Ayrshire,https://www.parkrun.org.uk/deancastlecountrypark
Delamere parkrun,53.239537,-2.68796,United Kingdom,England,Cheshire,https://www.parkrun.org.uk/delamere
Derry City parkrun,55.006966,-7.318933,United Kingdom,Northern Ireland,Derry,https://www.parkrun.org.uk/derrycity
Derrynoid Forest parkrun,54.802964,-6.810505,United Kingdom,Northern Ireland,Derry,https://www.parkrun.org.uk/derrynoidforest
Dewsbury parkrun,53.688239,-1.646237,United Kingdom,England,Kirklees,https://www.parkrun.org.uk/dewsbury
Didcot parkrun,51.612792,-1.239,United Kingdom,England,Oxfordshire,https://www.parkrun.org.uk/didcot
Dinton Pastures parkrun,51.440292,-0.880056,United Kingdom,England,Wokingham,https://www.parkrun.org.uk/dintonpastures
"Dishley parkrun, Loughborough",52.787485,-1.234785,United Kingdom,England,Leicestershire,https://www.parkrun.org.uk/dishleyloughborough
Doddington Hall parkrun,53.222149,-0.650558,United Kingdom,England,Lincolnshire,https://www.parkrun.org.uk/doddingtonhall
Dolgellau parkrun,52.744574,-3.886527,United Kingdom,Wales,Gwynedd,https://www.parkrun.org.uk/dolgellau
Downham Market Academy parkrun,52.6034,0.389471,United Kingdom,England,Norfolk,https://www.parkrun.org.uk/downhammarketacademy
Drumchapel parkrun,55.91688,-4.350674,United Kingdom,Scotland,Glasgow City,https://www.parkrun.org.uk/drumchapel
Drumpellier Country parkrun,55.871588,-4.065615,United Kingdom,Scotland,North Lanarkshire,https://www.parkrun.org.uk/drumpelliercountry
Druridge Bay parkrun,55.292765,-1.572348,United Kingdom,England,Northumberland,https://www.parkrun.org.uk/druridgebay
Dudley parkrun,52.490027,-2.134568,United Kingdom,England,Dudley,https://www.parkrun.org.uk/dudley
Dulwich parkrun,51.443869,-0.079206,United Kingdom,England,Greater London,https://www.parkrun.org.uk/dulwich
Dunfermline parkrun,56.070684,-3.470694,United Kingdom,Scotland,Fife,https://www.parkrun.org.uk/dunfermline
Dungannon Park parkrun,54.489432,-6.755359,United Kingdom,Northern Ireland,Tyrone,https://www.parkrun.org.uk/dungannonpark
Dunleath Playing Fields parkrun,54.323473,-5.718077,United Kingdom,Northern Ireland,Down,https://www.parkrun.org.uk/dunleathplayingfields
Dunstable Downs parkrun,51.865432,-0.537791,United Kingdom,England,Central Bedfordshire,https://www.parkrun.org.uk/dunstabledowns
Durham parkrun,54.767605,-1.558852,United Kingdom,England,Durham,https://www.parkrun.org.uk/durham
Durlston Country Park parkrun,50.595211,-1.954023,United Kingdom,England,Dorset,https://www.parkrun.org.uk/durlstoncountrypark
East Brighton parkrun,50.818691,-0.099373,United Kingdom,England,Brighton and Hove,https://www.parkrun.org.uk/eastbrighton
East Grinstead parkrun,51.129008,0.001373,United Kingdom,England,West Sussex,https://www.parkrun.org.uk/eastgrinstead
East Park parkrun,52.579042,-2.101975,United Kingdom,England,Wolverhampton,https://www.parkrun.org.uk/eastpark
Eastbourne parkrun,50.806248,0.290451,United Kingdom,England,East Sussex,https://www.parkrun.org.uk/eastbourne
Eastleigh parkrun,50.971433,-1.374032,United Kingdom,England,Hampshire,https://www.parkrun.org.uk/eastleigh
Eastville parkrun,51.475453,-2.554304,United Kingdom,England,Bristol,https://www.parkrun.org.uk/eastville
"Ecos parkrun, Ballymena",54.867371,-6.259117,United Kingdom,Northern Ireland,Antrim,https://www.parkrun.org.uk/ecos
Eden Project parkrun,50.358315,-4.74285,United Kingdom,England,Cornwall,https://www.parkrun.org.uk/edenproject
Edenbrook Country parkrun,51.280199,-0.867088,United Kingdom,England,Hampshire,https://www.parkrun.org.uk/edenbrookcountry
Edgbaston Reservoir parkrun,52.476722,-1.936437,United Kingdom,England,Birmingham,https://www.parkrun.org.uk/edgbastonreservoir
Edinburgh parkrun,55.978806,-3.291585,United Kingdom,Scotland,Edinburgh,https://www.parkrun.org.uk/edinburgh
Eglinton parkrun,55.643935,-4.669662,United Kingdom,Scotland,North Ayrshire,https://www.parkrun.org.uk/eglinton
Elder Park parkrun,55.863235,-4.32197,United Kingdom,Scotland,Glasgow City,https://www.parkrun.org.uk/elderpark
Elgin parkrun,57.653393,-3.313072,United Kingdom,Scotland,Moray,https://www.parkrun.org.uk/elgin
Ellesmere Port parkrun,53.272524,-2.902542,United Kingdom,England,Cheshire,https://www.parkrun.org.uk/ellesmereport
Ellon parkrun,57.359262,-2.056968,United Kingdom,Scotland,Aberdeenshire,https://www.parkrun.org.uk/ellon
Endcliffe parkrun,53.368631,-1.507364,United Kingdom,England,Sheffield,https://www.parkrun.org.uk/endcliffe
Enniskillen parkrun,54.343834,-7.642293,United Kingdom,Northern Ireland,Fermanagh,https://www.parkrun.org.uk/enniskillen
Erddig parkrun,53.027137,-3.006833,United Kingdom,Wales,Wrexham,https://www.parkrun.org.uk/erddig
Erskine Waterfront parkrun,55.907749,-4.447774,United Kingdom,Scotland,Renfrewshire,https://www.parkrun.org.uk/erskinewaterfront
Evesham parkrun,52.090191,-1.958122,United Kingdom,England,Worcestershire,https://www.parkrun.org.uk/evesham
Exeter Riverside parkrun,50.713762,-3.525833,United Kingdom,England,Devon,https://www.parkrun.org.uk/exeterriverside
Exmouth parkrun,50.614697,-3.412392,United Kingdom,England,Devon,https://www.parkrun.org.uk/exmouth
Falkirk parkrun,55.99543,-3.766712,United Kingdom,Scotland,Falkirk,https://www.parkrun.org.uk/falkirk
"Falls parkrun, Belfast",54.586363,-5.978879,United Kingdom,Northern Ireland,Belfast,https://www.parkrun.org.uk/falls
Fareham parkrun,50.848448,-1.167385,United Kingdom,England,Hampshire,https://www.parkrun.org.uk/fareham
Faskally Forest parkrun,56.7118,-3.767296,United Kingdom,Scotland,Perth and Kinross,https://www.parkrun.org.uk/faskallyforest
Felixstowe parkrun,51.957778,1.345741,United Kingdom,England,Suffolk,https://www.parkrun.org.uk/felixstowe
"Fell Foot parkrun, Newby Bridge",54.274736,-2.952259,United Kingdom,England,Cumbria,https://www.parkrun.org.uk/fellfoot
Ferry Meadows parkrun,52.565563,-0.308132,United Kingdom,England,Peterborough,https://www.parkrun.org.uk/ferrymeadows
Finsbury parkrun,51.569595,-0.104145,United Kingdom,England,Greater London,https://www.parkrun.org.uk/finsbury
Flatts Lane parkrun,54.543872,-1.151741,United Kingdom,England,Redcar and Cleveland,https://www.parkrun.org.uk/flattslane
Fleetwood Promenade parkrun,53.927366,-3.016919,United Kingdom,England,Lancashire,https://www.parkrun.org.uk/fleetwoodpromenade
Flegg High parkrun,52.713022,1.640492,United Kingdom,England,Norfolk,https://www.parkrun.org.uk/flegghigh
Fletcher Moss parkrun,53.40999,-2.23551,United Kingdom,England,Manchester,https://www.parkrun.org.uk/fletchermoss
Folkestone parkrun,51.075729,1.172753,United Kingdom,England,Kent,https://www.parkrun.org.uk/folkestone
Foots Cray Meadows parkrun,51.432103,0.133269,United Kingdom,England,Greater London,https://www.parkrun.org.uk/footscraymeadows
Ford parkrun,54.198427,-3.088135,United Kingdom,England,Cumbria,https://www.parkrun.org.uk/ford
Forest of Dean parkrun,51.808701,-2.605219,United Kingdom,England,Gloucestershire,https://www.parkrun.org.uk/forestofdean
Forest Rec parkrun,52.965352,-1.159766,United Kingdom,England,Nottingham,https://www.parkrun.org.uk/forestrec
Forfar Loch parkrun,56.642663,-2.908213,United Kingdom,Scotland,Angus,https://www.parkrun.org.uk/forfarloch
Fort William parkrun,56.851484,-4.999161,United Kingdom,Scotland,Highland,https://www.parkrun.org.uk/fortwilliam
Fountains Abbey parkrun,54.110196,-1.581983,United Kingdom,England,North Yorkshire,https://www.parkrun.org.uk/fountainsabbey
Frickley Country parkrun,53.588573,-1.290457,United Kingdom,England,Wakefield,https://www.parkrun.org.uk/frickleycountry
Frimley Lodge parkrun,51.298622,-0.724851,United Kingdom,England,Surrey,https://www.parkrun.org.uk/frimleylodge
Frogmary Green Farm parkrun,50.941688,-2.824426,United Kingdom,England,Somerset,https://www.parkrun.org.uk/frogmarygreenfarm
Fulbourn Hospital parkrun,52.184131,0.186094,United Kingdom,England,Cambridgeshire,https://www.parkrun.org.uk/fulbournhospital
Fulham Palace parkrun,51.472465,-0.218493,United Kingdom,England,Greater London,https://www.parkrun.org.uk/fulhampalace
Gadebridge parkrun,51.758909,-0.473542,United Kingdom,England,Hertfordshire,https://www.parkrun.org.uk/gadebridge
Ganavan Sands parkrun,56.437766,-5.469021,United Kingdom,Scotland,Argyll and Bute,https://www.parkrun.org.uk/ganavansands
Ganger Farm parkrun,51.009374,-1.464821,United Kingdom,England,Hampshire,https://www.parkrun.org.uk/gangerfarm
Garvagh Forest parkrun,54.977416,-6.695537,United Kingdom,Northern Ireland,Derry,https://www.parkrun.org.uk/garvaghforest
Gateshead parkrun,54.944733,-1.602094,United Kingdom,England,Gateshead,https://www.parkrun.org.uk/gateshead
Gedling parkrun,52.993919,-1.087124,United Kingdom,England,Nottinghamshire,https://www.parkrun.org.uk/gedling
Girvan Prom parkrun,55.243994,-4.862538,United Kingdom,Scotland,South Ayrshire,https://www.parkrun.org.uk/girvanprom
Gladstone parkrun,51.556982,-0.228223,United Kingdom,England,Greater London,https://www.parkrun.org.uk/gladstone
Glossop parkrun,53.447019,-1.939503,United Kingdom,England,Derbyshire,https://www.parkrun.org.uk/glossop
Gloucester City parkrun,51.858707,-2.243129,United Kingdom,England,Gloucestershire,https://www.parkrun.org.uk/gloucestercity
Gloucester North parkrun,51.878304,-2.231707,United Kingdom,England,Gloucestershire,https://www.parkrun.org.uk/gloucesternorth
Gnoll parkrun,51.661114,-3.788616,United Kingdom,Wales,Neath Port Talbot,https://www.parkrun.org.uk/gnoll
Goole parkrun,53.710492,-0.891098,United Kingdom,England,East Yorkshire,https://www.parkrun.org.uk/goole
Gorleston Cliffs parkrun,52.567806,1.73069,United Kingdom,England,Norfolk,https://www.parkrun.org.uk/gorleston
Grangemoor parkrun,51.454464,-3.192412,United Kingdom,Wales,Cardiff,https://www.parkrun.org.uk/grangemoor
Graves parkrun,53.338906,-1.464657,United Kingdom,England,Sheffield,https://www.parkrun.org.uk/graves
Great Cornard parkrun,52.02463,0.751362,United Kingdom,England,Suffolk,https://www.parkrun.org.uk/greatcornard
Great Denham parkrun,52.121602,-0.509062,United Kingdom,England,Bedford,https://www.parkrun.org.uk/greatdenham
Great Dunmow parkrun,51.878681,0.3627,United Kingdom,England,Essex,https://www.parkrun.org.uk/greatdunmow
"Great Lines parkrun, Medway",51.388527,0.541334,United Kingdom,England,Medway,https://www.parkrun.org.uk/greatlines
Great Notley parkrun,51.864147,0.51584,United Kingdom,England,Essex,https://www.parkrun.org.uk/greatnotley
Great Salterns parkrun,50.809385,-1.046606,United Kingdom,England,Portsmouth,https://www.parkrun.org.uk/greatsalterns
Great Yarmouth North Beach parkrun,52.613141,1.73892,United Kingdom,England,Norfolk,https://www.parkrun.org.uk/greatyarmouthnorthbeach
Greenfield Valley parkrun,53.275044,-3.220992,United Kingdom,Wales,Flintshire,https://www.parkrun.org.uk/greenfieldvalley
Greenock parkrun,55.956525,-4.767348,United Kingdom,Scotland,Inverclyde,https://www.parkrun.org.uk/greenock
Greenwich parkrun,51.449459,0.075155,United Kingdom,England,Greater London,https://www.parkrun.org.uk/greenwich
Groe parkrun,52.150418,-3.403113,United Kingdom,Wales,Powys,https://www.parkrun.org.uk/groe
Grove Fields parkrun,51.600059,-1.425256,United Kingdom,England,Oxfordshire,https://www.parkrun.org.uk/grovefields
"Grovelands parkrun, Enfield",51.633076,-0.113769,United Kingdom,England,Greater London,https://www.parkrun.org.uk/grovelands
Guernsey parkrun,49.502341,-2.530312,United Kingdom,Guernsey,,https://www.parkrun.org.uk/guernsey
Guildford parkrun,51.247383,-0.562062,United Kingdom,England,Surrey,https://www.parkrun.org.uk/guildford
Gunnersbury parkrun,51.499405,-0.292253,United Kingdom,England,Greater London,https://www.parkrun.org.uk/gunnersbury
Gunpowder parkrun,51.676037,-0.000831,United Kingdom,England,Essex,https://www.parkrun.org.uk/gunpowder
Hackney Marshes parkrun,51.553686,-0.025368,United Kingdom,England,Greater London,https://www.parkrun.org.uk/hackneymarshes
Hackworth parkrun,54.628071,-1.644945,United Kingdom,England,Durham,https://www.parkrun.org.uk/hackworth
"Hadleigh parkrun, Essex",51.549769,0.59606,United Kingdom,England,Essex,https://www.parkrun.org.uk/hadleigh
Hafan Pwllheli parkrun,52.888538,-4.402811,United Kingdom,Wales,Gwynedd,https://www.parkrun.org.uk/hafanpwllheli
Haigh Woodland parkrun,53.572714,-2.609519,United Kingdom,England,Wigan,https://www.parkrun.org.uk/haighwoodland
Haldon Forest parkrun,50.653392,-3.579359,United Kingdom,England,Devon,https://www.parkrun.org.uk/haldonforest
Halifax parkrun,53.731746,-1.873871,United Kingdom,England,Calderdale,https://www.parkrun.org.uk/halifax
Hampstead Heath parkrun,51.558598,-0.168185,United Kingdom,England,Greater London,https://www.parkrun.org.uk/hampsteadheath
Hamsterley Forest parkrun,54.675593,-1.858786,United Kingdom,England,Durham,https://www.parkrun.org.uk/hamsterleyforest
Hanley parkrun,53.012501,-2.175164,United Kingdom,England,Stoke-on-Trent,https://www.parkrun.org.uk/hanley
Hanworth parkrun,51.43874,-0.398287,United Kingdom,England,Greater London,https://www.parkrun.org.uk/hanworth
Harcourt Hill parkrun,51.739369,-1.295191,United Kingdom,England,Oxfordshire,https://www.parkrun.org.uk/harcourthill
Harleston Magpies parkrun,52.384367,1.295457,United Kingdom,England,Suffolk,https://www.parkrun.org.uk/harlestonmagpies
Harlow parkrun,51.77766,0.103624,United Kingdom,England,Essex,https://www.parkrun.org.uk/harlow
Harrogate parkrun,53.992428,-1.521435,United Kingdom,England,North Yorkshire,https://www.parkrun.org.uk/harrogate
Harrow Lodge parkrun,51.555606,0.200715,United Kingdom,England,Greater London,https://www.parkrun.org.uk/harrowlodge
Harrow parkrun,51.581781,-0.342734,United Kingdom,England,Greater London,https://www.parkrun.org.uk/harrow
Hartlepool parkrun,54.686937,-1.195128,United Kingdom,England,Hartlepool,https://www.parkrun.org.uk/hartlepool
Harwich parkrun,51.938035,1.284809,United Kingdom,England,Essex,https://www.parkrun.org.uk/harwich
Hastings High School parkrun,52.53526,-1.356127,United Kingdom,England,Leicestershire,https://www.parkrun.org.uk/hastingshighschool
Hastings parkrun,50.850291,0.539739,United Kingdom,England,East Sussex,https://www.parkrun.org.uk/hastings
Havant parkrun,50.875771,-0.975565,United Kingdom,England,Hampshire,https://www.parkrun.org.uk/havant
Haverfordwest parkrun,51.797163,-4.992836,United Kingdom,Wales,Pembrokeshire,https://www.parkrun.org.uk/haverfordwest
Haverhill parkrun,52.076737,0.422212,United Kingdom,England,Suffolk,https://www.parkrun.org.uk/haverhill
Hay Lodge parkrun,55.651659,-3.199586,United Kingdom,Scotland,Scottish Borders,https://www.parkrun.org.uk/haylodge
Hazelwood parkrun,51.405783,-0.421045,United Kingdom,England,Surrey,https://www.parkrun.org.uk/hazelwood
"Hazlehead parkrun, Aberdeen",57.141371,-2.175647,United Kingdom,Scotland,Aberdeen City,https://www.parkrun.org.uk/hazlehead
Heartlands parkrun,50.224177,-5.2715,United Kingdom,England,Cornwall,https://www.parkrun.org.uk/heartlands
Heaton parkrun,53.531975,-2.256263,United Kingdom,England,Manchester,https://www.parkrun.org.uk/heaton
"Henley Wood parkrun, Oswestry",52.862542,-3.030368,United Kingdom,England,Shropshire,https://www.parkrun.org.uk/henleywood
Henley-on-Thames parkrun,51.531978,-0.919288,United Kingdom,England,Oxfordshire,https://www.parkrun.org.uk/henleyonthames
Henlow Bridge Lakes parkrun,52.030537,-0.268787,United Kingdom,England,Central Bedfordshire,https://www.parkrun.org.uk/henlowbridgelakes
Henstridge Airfield parkrun,50.985278,-2.352992,United Kingdom,England,Somerset,https://www.parkrun.org.uk/henstridgeairfield
Hereford parkrun,52.068892,-2.724152,United Kingdom,England,Herefordshire,https://www.parkrun.org.uk/hereford
Herrington Country parkrun,54.876573,-1.476809,United Kingdom,England,Sunderland,https://www.parkrun.org.uk/herringtoncountry
Heslington parkrun,53.949319,-1.01799,United Kingdom,England,York,https://www.parkrun.org.uk/heslington
"Higginson parkrun, Marlow",51.566268,-0.779573,United Kingdom,England,Buckinghamshire,https://www.parkrun.org.uk/higginsonmarlow
Highbury Fields parkrun,51.546959,-0.102884,United Kingdom,England,Greater London,https://www.parkrun.org.uk/highburyfields
Highwoods parkrun,51.904682,0.917561,United Kingdom,England,Essex,https://www.parkrun.org.uk/highwoods
Hillsborough Forest parkrun,54.461336,-6.076662,United Kingdom,Northern Ireland,Down,https://www.parkrun.org.uk/hillsboroughforest
Hillsborough parkrun,53.408457,-1.501973,United Kingdom,England,Sheffield,https://www.parkrun.org.uk/hillsborough
Hilly Fields parkrun,51.460143,-0.025019,United Kingdom,England,Greater London,https://www.parkrun.org.uk/hillyfields
Hoblingwell parkrun,51.400981,0.098847,United Kingdom,England,Greater London,https://www.parkrun.org.uk/hoblingwell
Hockley Woods parkrun,51.596133,0.64912,United Kingdom,England,Essex,https://www.parkrun.org.uk/hockleywoods
Hogmoor Inclosure parkrun,51.111681,-0.875934,United Kingdom,England,Hampshire,https://www.parkrun.org.uk/hogmoorinclosure
Holkham parkrun,52.950159,0.801022,United Kingdom,England,Norfolk,https://www.parkrun.org.uk/holkham
Holy Cross College parkrun,54.815718,-7.477408,United Kingdom,Northern Ireland,Tyrone,https://www.parkrun.org.uk/holycrosscollege
Holyrood parkrun,55.952167,-3.162844,United Kingdom,Scotland,Edinburgh,https://www.parkrun.org.uk/holyrood
Homewood parkrun,51.366808,-0.539078,United Kingdom,England,Surrey,https://www.parkrun.org.uk/homewood
Horsham parkrun,51.06651,-0.327908,United Kingdom,England,West Sussex,https://www.parkrun.org.uk/horsham
Horspath parkrun,51.737281,-1.188165,United Kingdom,England,Oxfordshire,https://www.parkrun.org.uk/horspath
Horton Park parkrun,53.782455,-1.77538,United Kingdom,England,Bradford,https://www.parkrun.org.uk/hortonpark
Houghton Hall parkrun,51.90155,-0.510046,United Kingdom,England,Central Bedfordshire,https://www.parkrun.org.uk/houghtonhall
Hove Promenade parkrun,50.823391,-0.166594,United Kingdom,England,Brighton and Hove,https://www.parkrun.org.uk/hovepromenade
Huddersfield parkrun,53.650608,-1.800685,United Kingdom,England,Kirklees,https://www.parkrun.org.uk/huddersfield
Hull parkrun,53.764645,-0.300708,United Kingdom,England,Kingston upon Hull,https://www.parkrun.org.uk/hull
Humber Bridge parkrun,53.71723,-0.453352,United Kingdom,England,East Yorkshire,https://www.parkrun.org.uk/humberbridge
Hunstanton Promenade parkrun,52.941684,0.486526,United Kingdom,England,Norfolk,https://www.parkrun.org.uk/hunstantonpromenade
Huntingdon parkrun,52.32936,-0.211025,United Kingdom,England,Cambridgeshire,https://www.parkrun.org.uk/huntingdon
Hyde parkrun,53.45713,-2.076554,United Kingdom,England,Tameside,https://www.parkrun.org.uk/hyde
Hyndburn parkrun,53.781711,-2.376734,United Kingdom,England,Lancashire,https://www.parkrun.org.uk/hyndburn
Ifield Mill Pond parkrun,51.107508,-0.218863,United Kingdom,England,West Sussex,https://www.parkrun.org.uk/ifieldmillpond
Ipswich parkrun,52.050923,1.116032,United Kingdom,England,Suffolk,https://www.parkrun.org.uk/ipswich
Irchester Country parkrun,52.285076,-0.673649,United Kingdom,England,Northamptonshire,https://www.parkrun.org.uk/irchestercountry
Isabel Trail parkrun,52.808242,-2.125953,United Kingdom,England,Staffordshire,https://www.parkrun.org.uk/isabeltrail
Itchen Valley Country parkrun,50.944849,-1.341722,United Kingdom,England,Hampshire,https://www.parkrun.org.uk/itchenvalleycountry
Jersey Farm parkrun,51.773718,-0.307978,United Kingdom,England,Hertfordshire,https://www.parkrun.org.uk/jerseyfarm
Jersey parkrun,49.195026,-2.204124,United Kingdom,Jersey,,https://www.parkrun.org.uk/jersey
Jesmond Dene parkrun,54.99188,-1.592839,United Kingdom,England,Newcastle upon Tyne,https://www.parkrun.org.uk/jesmonddene
Jubilee parkrun,54.701073,-1.604602,United Kingdom,England,Durham,https://www.parkrun.org.uk/jubilee
Kesgrave parkrun,52.058138,1.257741,United Kingdom,England,Suffolk,https://www.parkrun.org.uk/kesgrave
Keswick parkrun,54.603863,-3.129497,United Kingdom,England,Cumbria,https://www.parkrun.org.uk/keswick
Kettering parkrun,52.384226,-0.710653,United Kingdom,England,Northamptonshire,https://www.parkrun.org.uk/kettering
Kew Woods parkrun,53.629073,-2.995064,United Kingdom,England,Sefton,https://www.parkrun.org.uk/kewwoods
Killerton parkrun,50.792835,-3.455007,United Kingdom,England,Devon,https://www.parkrun.org.uk/killerton
"King George V Playing Field parkrun, Cheltenham",51.901883,-2.110018,United Kingdom,England,Gloucestershire,https://www.parkrun.org.uk/kinggeorgevplayingfield
King’s Lynn parkrun,52.752762,0.407446,United Kingdom,England,Norfolk,https://www.parkrun.org.uk/kingslynn
Kingdom parkrun,51.162408,0.162768,United Kingdom,England,Kent,https://www.parkrun.org.uk/kingdom
Kingsbury Water parkrun,52.561983,-1.698718,United Kingdom,England,Warwickshire,https://www.parkrun.org.uk/kingsburywater
Kingston parkrun,51.426567,-0.309516,United Kingdom,England,Greater London,https://www.parkrun.org.uk/kingston
"Kingsway parkrun, Gloucester",51.821487,-2.272804,United Kingdom,England,Gloucestershire,https://www.parkrun.org.uk/kingsway
Kirkcaldy parkrun,56.104087,-3.169549,United Kingdom,Scotland,Fife,https://www.parkrun.org.uk/kirkcaldy
Kirkwall parkrun,58.982282,-2.948069,United Kingdom,Scotland,Orkney Islands,https://www.parkrun.org.uk/kirkwall
Knockbracken Reservoir parkrun,54.524392,-5.892928,United Kingdom,Northern Ireland,Down,https://www.parkrun.org.uk/knockbrackenreservoir
Knowsley parkrun,53.411116,-2.811654,United Kingdom,England,Knowsley,https://www.parkrun.org.uk/knowsley
Lanark Moor parkrun,55.666318,-3.750284,United Kingdom,Scotland,South Lanarkshire,https://www.parkrun.org.uk/lanarkmoor
Lancaster parkrun,54.04568,-2.781183,United Kingdom,England,Lancashire,https://www.parkrun.org.uk/lancaster
Lancing Beach Green parkrun,50.820591,-0.323792,United Kingdom,England,West Sussex,https://www.parkrun.org.uk/lancingbeachgreen
Land’s End parkrun,50.066127,-5.714096,United Kingdom,England,Cornwall,https://www.parkrun.org.uk/landsend
Lanhydrock parkrun,50.441131,-4.69614,United Kingdom,England,Cornwall,https://www.parkrun.org.uk/lanhydrock
Largs Prom parkrun,55.802062,-4.873064,United Kingdom,Scotland,North Ayrshire,https://www.parkrun.org.uk/largsprom
Larne parkrun,54.88843,-5.843595,United Kingdom,Northern Ireland,Antrim,https://www.parkrun.org.uk/larne
Leamington parkrun,52.28714,-1.504655,United Kingdom,England,Warwickshire,https://www.parkrun.org.uk/leamington
Leavesden Country parkrun,51.704924,-0.403599,United Kingdom,England,Hertfordshire,https://www.parkrun.org.uk/leavesdencountry
Leazes parkrun,54.977078,-1.625633,United Kingdom,England,Newcastle upon Tyne,https://www.parkrun.org.uk/leazes
Lee-on-the-Solent parkrun,50.801087,-1.20383,United Kingdom,England,Hampshire,https://www.parkrun.org.uk/leeonthesolent
Leicester Victoria parkrun,52.620954,-1.121659,United Kingdom,England,Leicester,https://www.parkrun.org.uk/leicestervictoria
Letchworth parkrun,51.999895,-0.22279,United Kingdom,England,Hertfordshire,https://www.parkrun.org.uk/letchworth
Levengrove parkrun,55.940721,-4.57567,United Kingdom,Scotland,West Dunbartonshire,https://www.parkrun.org.uk/levengrove
Lews Castle parkrun,58.207899,-6.396894,United Kingdom,Scotland,Western Isles,https://www.parkrun.org.uk/lewscastle
Limavady parkrun,55.047128,-6.944777,United Kingdom,Northern Ireland,Derry,https://www.parkrun.org.uk/limavady
Limepark Playing Fields parkrun,55.123827,-6.32179,United Kingdom,Northern Ireland,Antrim,https://www.parkrun.org.uk/limeparkplayingfields
Lincoln parkrun,53.208848,-0.560904,United Kingdom,England,Lincolnshire,https://www.parkrun.org.uk/lincoln
Linford Wood parkrun,52.05864,-0.760168,United Kingdom,England,Milton Keynes,https://www.parkrun.org.uk/linfordwood
Lingwood parkrun,52.618901,1.493528,United Kingdom,England,Norfolk,https://www.parkrun.org.uk/lingwood
Linwood parkrun,55.854033,-4.505078,United Kingdom,Scotland,Renfrewshire,https://www.parkrun.org.uk/linwood
Littlehampton Prom parkrun,50.802284,-0.541939,United Kingdom,England,West Sussex,https://www.parkrun.org.uk/littlehamptonprom
Littleport parkrun,52.463048,0.299342,United Kingdom,England,Cambridgeshire,https://www.parkrun.org.uk/littleport
Livingston parkrun,55.886797,-3.518828,United Kingdom,Scotland,West Lothian,https://www.parkrun.org.uk/livingston
Llanerchaeron parkrun,52.220443,-4.235798,United Kingdom,Wales,Ceredigion,https://www.parkrun.org.uk/llanerchaeron
Llanishen Park parkrun,51.529533,-3.196302,United Kingdom,Wales,Cardiff,https://www.parkrun.org.uk/llanishenpark
"Lloyd parkrun, Croydon",51.364807,-0.079973,United Kingdom,England,Greater London,https://www.parkrun.org.uk/lloyd
Llyn Llech Owain parkrun,51.812913,-4.080563,United Kingdom,Wales,Carmarthenshire,https://www.parkrun.org.uk/llynllechowain
Loch Leven parkrun,56.219434,-3.358085,United Kingdom,Scotland,Perth and Kinross,https://www.parkrun.org.uk/lochleven
"Loch Neaton parkrun, Watton",52.577558,0.8274,United Kingdom,England,Norfolk,https://www.parkrun.org.uk/lochneaton
Lochend Woods parkrun,55.997214,-2.521501,United Kingdom,Scotland,East Lothian,https://www.parkrun.org.uk/lochendwoods
Lochore Meadows parkrun,56.150699,-3.33708,United Kingdom,Scotland,Fife,https://www.parkrun.org.uk/lochoremeadows
Long Eaton parkrun,52.895155,-1.285853,United Kingdom,England,Derbyshire,https://www.parkrun.org.uk/longeaton
Longrun Meadow parkrun,51.018755,-3.114989,United Kingdom,England,Somerset,https://www.parkrun.org.uk/longrunmeadow
Lordship Recreation Ground parkrun,51.594341,-0.086951,United Kingdom,England,Greater London,https://www.parkrun.org.uk/lordshiprecreationground
Lowestoft parkrun,52.468286,1.747338,United Kingdom,England,Suffolk,https://www.parkrun.org.uk/lowestoft
Ludlow parkrun,52.353284,-2.773078,United Kingdom,England,Herefordshire,https://www.parkrun.org.uk/ludlow
Lullingstone parkrun,51.353118,0.187147,United Kingdom,England,Kent,https://www.parkrun.org.uk/lullingstone
Luton Wardown parkrun,51.889853,-0.420917,United Kingdom,England,Luton,https://www.parkrun.org.uk/lutonwardown
Lydiard parkrun,51.561489,-1.853621,United Kingdom,England,Swindon,https://www.parkrun.org.uk/lydiard
Lydney parkrun,51.721613,-2.52648,United Kingdom,England,Gloucestershire,https://www.parkrun.org.uk/lydney
Lyme Park parkrun,53.337193,-2.058402,United Kingdom,England,Cheshire East,https://www.parkrun.org.uk/lymepark
Lymington Woodside parkrun,50.747747,-1.54548,United Kingdom,England,Hampshire,https://www.parkrun.org.uk/lymingtonwoodside
Lytham Hall parkrun,53.744855,-2.977613,United Kingdom,England,Lancashire,https://www.parkrun.org.uk/lythamhall
Macclesfield parkrun,53.251413,-2.1303,United Kingdom,England,Cheshire East,https://www.parkrun.org.uk/macclesfield
Maesteg parkrun,51.609499,-3.665573,United Kingdom,Wales,County Borough of Bridgend,https://www.parkrun.org.uk/maesteg
Maidenhead parkrun,51.51095,-0.712135,United Kingdom,England,Windsor and Maidenhead,https://www.parkrun.org.uk/maidenhead
Maidstone parkrun,51.29641,0.507689,United Kingdom,England,Kent,https://www.parkrun.org.uk/maidstone
Maldon Prom parkrun,51.726742,0.68877,United Kingdom,England,Essex,https://www.parkrun.org.uk/maldonprom
Mallards Pike parkrun,51.784666,-2.528555,United Kingdom,England,Gloucestershire,https://www.parkrun.org.uk/mallardspike
Malling parkrun,51.31537,0.437343,United Kingdom,England,Kent,https://www.parkrun.org.uk/malling
"Manor Field parkrun, Whittlesey",52.551869,-0.125941,United Kingdom,England,Cambridgeshire,https://www.parkrun.org.uk/manorfieldwhittlesey
Mansfield parkrun,53.174034,-1.183844,United Kingdom,England,Nottinghamshire,https://www.parkrun.org.uk/mansfield
March parkrun,52.550069,0.086208,United Kingdom,England,Cambridgeshire,https://www.parkrun.org.uk/march
Margate parkrun,51.39207,1.403997,United Kingdom,England,Kent,https://www.parkrun.org.uk/margate
Marine Parade parkrun,51.334997,-2.983828,United Kingdom,England,North Somerset,https://www.parkrun.org.uk/marineparade
Markeaton parkrun,52.935408,-1.504769,United Kingdom,England,Derby,https://www.parkrun.org.uk/markeaton
Market Bosworth Country Park parkrun,52.623664,-1.391946,United Kingdom,England,Leicestershire,https://www.parkrun.org.uk/marketbosworthcountrypark
Market Harborough parkrun,52.474487,-0.924979,United Kingdom,England,Leicestershire,https://www.parkrun.org.uk/marketharborough
Market Rasen Racecourse parkrun,53.380502,-0.309019,United Kingdom,England,Lincolnshire,https://www.parkrun.org.uk/marketrasenracecourse
Markshall Estate parkrun,51.897737,0.673757,United Kingdom,England,Essex,https://www.parkrun.org.uk/markshallestate
Marlborough Common parkrun,51.42448,-1.732581,United Kingdom,England,Wiltshire,https://www.parkrun.org.uk/marlboroughcommon
Marple parkrun,53.404476,-2.056509,United Kingdom,England,Stockport,https://www.parkrun.org.uk/marple
"Marshall Drive parkrun, Brotton",54.574096,-0.947956,United Kingdom,England,Redcar and Cleveland,https://www.parkrun.org.uk/marshalldrive
Maryport Prom parkrun,54.7171,-3.50107,United Kingdom,England,Cumbria,https://www.parkrun.org.uk/maryportprom
Meadowmill parkrun,55.954249,-2.966242,United Kingdom,Scotland,East Lothian,https://www.parkrun.org.uk/meadowmill
Medina I.O.W. parkrun,50.711823,-1.286999,United Kingdom,England,Isle of Wight,https://www.parkrun.org.uk/medina
Melksham parkrun,51.377226,-2.136235,United Kingdom,England,Wiltshire,https://www.parkrun.org.uk/melksham
Melton Mowbray parkrun,52.780002,-0.879068,United Kingdom,England,Leicestershire,https://www.parkrun.org.uk/meltonmowbray
Mersea Island parkrun,51.79164,0.99368,United Kingdom,England,Essex,https://www.parkrun.org.uk/merseaisland
Merthyr parkrun,51.73896,-3.375658,United Kingdom,Wales,Merthyr Tydfil,https://www.parkrun.org.uk/merthyr
Middleton Woods parkrun,53.751892,-1.557233,United Kingdom,England,Leeds,https://www.parkrun.org.uk/middletonwoods
Mildenhall Hub parkrun,52.342792,0.499399,United Kingdom,England,Suffolk,https://www.parkrun.org.uk/mildenhallhub
Mile End parkrun,51.518169,-0.033946,United Kingdom,England,Greater London,https://www.parkrun.org.uk/mileend
Milford Waterfront parkrun,51.710763,-5.031507,United Kingdom,Wales,Pembrokeshire,https://www.parkrun.org.uk/milfordwaterfront
"Millennium Country parkrun, Forest of Marston Vale",52.065265,-0.534082,United Kingdom,England,Central Bedfordshire,https://www.parkrun.org.uk/millenniumcountry
Millfield parkrun,54.125154,-1.190864,United Kingdom,England,North Yorkshire,https://www.parkrun.org.uk/millfield
Millhouses parkrun,53.338516,-1.505027,United Kingdom,England,Sheffield,https://www.parkrun.org.uk/millhouses
Millom parkrun,54.21399,-3.26996,United Kingdom,England,Cumbria,https://www.parkrun.org.uk/millom
Milton Keynes parkrun,52.05011,-0.722984,United Kingdom,England,Milton Keynes,https://www.parkrun.org.uk/miltonkeynes
Minehead parkrun,51.207524,-3.469591,United Kingdom,England,Somerset,https://www.parkrun.org.uk/minehead
Mole Valley parkrun,51.248259,-0.330645,United Kingdom,England,Surrey,https://www.parkrun.org.uk/molevalley
Monsal Trail parkrun,53.230788,-1.675286,United Kingdom,England,Derbyshire,https://www.parkrun.org.uk/monsaltrail
Montrose parkrun,56.726297,-2.455223,United Kingdom,Scotland,Angus,https://www.parkrun.org.uk/montrose
Moors Valley parkrun,50.85124,-1.849419,United Kingdom,England,Dorset,https://www.parkrun.org.uk/moorsvalley
Morecambe Prom parkrun,54.065082,-2.885102,United Kingdom,England,Lancashire,https://www.parkrun.org.uk/morecambeprom
Mote Park parkrun,51.269539,0.541967,United Kingdom,England,Kent,https://www.parkrun.org.uk/motepark
Mount Edgcumbe parkrun,50.357664,-4.175493,United Kingdom,England,Cornwall,https://www.parkrun.org.uk/mountedgcumbe
Mount Stuart parkrun,55.792888,-5.019453,United Kingdom,Scotland,Argyll and Bute,https://www.parkrun.org.uk/mountstuart
MUSA Cookstown parkrun,54.615093,-6.735656,United Kingdom,Northern Ireland,Tyrone,https://www.parkrun.org.uk/musacookstown
Myrtle parkrun,53.846344,-1.838295,United Kingdom,England,Bradford,https://www.parkrun.org.uk/myrtle
Nant y Pandy parkrun,53.257642,-4.313233,United Kingdom,Wales,Anglesey,https://www.parkrun.org.uk/nantypandy
Netley Abbey parkrun,50.865345,-1.334453,United Kingdom,England,Hampshire,https://www.parkrun.org.uk/netleyabbey
New Earswick parkrun,53.99025,-1.077677,United Kingdom,England,York,https://www.parkrun.org.uk/newearswick
Newark parkrun,53.070031,-0.81905,United Kingdom,England,Nottinghamshire,https://www.parkrun.org.uk/newark
Newbiggin-by-the-Sea parkrun,55.185215,-1.505386,United Kingdom,England,Northumberland,https://www.parkrun.org.uk/newbigginbythesea
Newborough Forest parkrun,53.144163,-4.386757,United Kingdom,Wales,Anglesey,https://www.parkrun.org.uk/newboroughforest
Newbury parkrun,51.378426,-1.292267,United Kingdom,England,West Berkshire,https://www.parkrun.org.uk/newbury
"Newent parkrun, Forest of Dean",51.926515,-2.410056,United Kingdom,England,Gloucestershire,https://www.parkrun.org.uk/newent
Newport parkrun,51.559479,-3.030939,United Kingdom,Wales,Newport,https://www.parkrun.org.uk/newport
Newtown parkrun,52.514658,-3.319012,United Kingdom,Wales,Powys,https://www.parkrun.org.uk/newtown
Nobles parkrun,54.165828,-4.481846,United Kingdom,Isle of Man,Douglas,https://www.parkrun.org.uk/nobles
Nonsuch parkrun,51.356926,-0.231078,United Kingdom,England,Surrey,https://www.parkrun.org.uk/nonsuch
Normanby Hall parkrun,53.638407,-0.659924,United Kingdom,England,North Lincolnshire,https://www.parkrun.org.uk/normanbyhall
North Walsham parkrun,52.818216,1.391589,United Kingdom,England,Norfolk,https://www.parkrun.org.uk/northwalsham
North Yorkshire Water Park parkrun,54.227812,-0.482836,United Kingdom,England,North Yorkshire,https://www.parkrun.org.uk/northyorkshirewaterpark
Northala Fields parkrun,51.541272,-0.376711,United Kingdom,England,Greater London,https://www.parkrun.org.uk/northalafields
Northallerton parkrun,54.348466,-1.435519,United Kingdom,England,North Yorkshire,https://www.parkrun.org.uk/northallerton
Northampton parkrun,52.248143,-0.884445,United Kingdom,England,Northamptonshire,https://www.parkrun.org.uk/northampton
Northwich parkrun,53.265511,-2.510876,United Kingdom,England,Cheshire,https://www.parkrun.org.uk/northwich
Norwich parkrun,52.620422,1.255682,United Kingdom,England,Norfolk,https://www.parkrun.org.uk/norwich
Nostell parkrun,53.650212,-1.381241,United Kingdom,England,Wakefield,https://www.parkrun.org.uk/nostell
Nova Prestatyn parkrun,53.342126,-3.414183,United Kingdom,Wales,Denbighshire,https://www.parkrun.org.uk/novaprestatyn
Oak Hill parkrun,51.637718,-0.153744,United Kingdom,England,Greater London,https://www.parkrun.org.uk/oakhill
Oaklands parkrun,52.466391,-1.818013,United Kingdom,England,Birmingham,https://www.parkrun.org.uk/oaklands
Oakwell Hall parkrun,53.739437,-1.671596,United Kingdom,England,Kirklees,https://www.parkrun.org.uk/oakwellhall
Old Deer Park parkrun,51.464417,-0.306973,United Kingdom,England,Greater London,https://www.parkrun.org.uk/olddeerpark
Oldham parkrun,53.534187,-2.104118,United Kingdom,England,Oldham,https://www.parkrun.org.uk/oldham
Omagh parkrun,54.602837,-7.296222,United Kingdom,Northern Ireland,Tyrone,https://www.parkrun.org.uk/omagh
Orangefield parkrun,54.588509,-5.884361,United Kingdom,Northern Ireland,Belfast,https://www.parkrun.org.uk/orangefield
Oriam parkrun,55.909754,-3.31715,United Kingdom,Scotland,Edinburgh,https://www.parkrun.org.uk/oriam
Ormeau parkrun,54.588374,-5.914786,United Kingdom,Northern Ireland,Belfast,https://www.parkrun.org.uk/ormeau
Ormskirk parkrun,53.559245,-2.868097,United Kingdom,England,Lancashire,https://www.parkrun.org.uk/ormskirk
Orpington parkrun,51.365283,0.117224,United Kingdom,England,Greater London,https://www.parkrun.org.uk/orpington
Osterley parkrun,51.489403,-0.349889,United Kingdom,England,Greater London,https://www.parkrun.org.uk/osterley
Oxford parkrun,51.790901,-1.262419,United Kingdom,England,Oxfordshire,https://www.parkrun.org.uk/oxford
Palacerigg Country parkrun,55.937089,-3.949289,United Kingdom,Scotland,North Lanarkshire,https://www.parkrun.org.uk/palaceriggcountry
Panshanger parkrun,51.796066,-0.107589,United Kingdom,England,Hertfordshire,https://www.parkrun.org.uk/panshanger
Parke parkrun,50.59305,-3.686562,United Kingdom,England,Devon,https://www.parkrun.org.uk/parke
Pavilion Gardens parkrun,53.254611,-1.918759,United Kingdom,England,Derbyshire,https://www.parkrun.org.uk/paviliongardens
Peacehaven parkrun,50.794092,0.012418,United Kingdom,England,East Sussex,https://www.parkrun.org.uk/peacehaven
Peckham Rye parkrun,51.455486,-0.060688,United Kingdom,England,Greater London,https://www.parkrun.org.uk/peckhamrye
Peel parkrun,53.48759,-2.270682,United Kingdom,England,Salford,https://www.parkrun.org.uk/peel
Pegwell Bay parkrun,51.320957,1.361446,United Kingdom,England,Kent,https://www.parkrun.org.uk/pegwellbay
Penallta parkrun,51.644889,-3.245679,United Kingdom,Wales,Caerphilly,https://www.parkrun.org.uk/penallta
Pendle parkrun,53.863571,-2.18011,United Kingdom,England,Lancashire,https://www.parkrun.org.uk/pendle
Penistone parkrun,53.526568,-1.635407,United Kingdom,England,Barnsley,https://www.parkrun.org.uk/penistone
Pennington Flash parkrun,53.491608,-2.542745,United Kingdom,England,Wigan,https://www.parkrun.org.uk/penningtonflash
Penrhyn parkrun,53.226852,-4.094495,United Kingdom,Wales,Gwynedd,https://www.parkrun.org.uk/penrhyn
Penrith parkrun,54.658026,-2.720532,United Kingdom,England,Cumbria,https://www.parkrun.org.uk/penrith
Penrose parkrun,50.096824,-5.281819,United Kingdom,England,Cornwall,https://www.parkrun.org.uk/penrose
Penryn Campus parkrun,50.170244,-5.124008,United Kingdom,England,Cornwall,https://www.parkrun.org.uk/penryncampus
Perry Hall parkrun,52.52486,-1.911825,United Kingdom,England,Birmingham,https://www.parkrun.org.uk/perryhall
Perth parkrun,56.40515,-3.435422,United Kingdom,Scotland,Perth and Kinross,https://www.parkrun.org.uk/perth
Peter Pan parkrun,53.73833,-0.402181,United Kingdom,England,Kingston upon Hull,https://www.parkrun.org.uk/peterpan
Phoenix parkrun,53.337865,-2.681623,United Kingdom,England,Halton,https://www.parkrun.org.uk/phoenix
Plean parkrun,56.057791,-3.881607,United Kingdom,Scotland,Stirling,https://www.parkrun.org.uk/plean
Plymvalley parkrun,50.409091,-4.079618,United Kingdom,England,Plymouth,https://www.parkrun.org.uk/plymvalley
Pocket parkrun,52.214797,-0.275327,United Kingdom,England,Cambridgeshire,https://www.parkrun.org.uk/pocket
Polkemmet Country parkrun,55.866214,-3.720256,United Kingdom,Scotland,West Lothian,https://www.parkrun.org.uk/polkemmetcountry
"Pollok parkrun, Glasgow",55.82992,-4.307882,United Kingdom,Scotland,Glasgow City,https://www.parkrun.org.uk/pollok
Pomphrey Hill parkrun,51.479321,-2.47805,United Kingdom,England,South Gloucestershire,https://www.parkrun.org.uk/pomphreyhill
Pont y Bala parkrun,52.912396,-3.593199,United Kingdom,Wales,Gwynedd,https://www.parkrun.org.uk/pontybala
Pontefract parkrun,53.697922,-1.325197,United Kingdom,England,Wakefield,https://www.parkrun.org.uk/pontefract
Pontypool parkrun,51.699213,-3.028573,United Kingdom,Wales,Torfaen County Borough,https://www.parkrun.org.uk/pontypool
Pontypridd parkrun,51.602009,-3.339028,United Kingdom,Wales,Rhondda Cynon Taf,https://www.parkrun.org.uk/pontypridd
Poole parkrun,50.720348,-1.968876,United Kingdom,England,"Bournemouth, Christchurch and Poole Council",https://www.parkrun.org.uk/poole
Poolsbrook parkrun,53.259118,-1.348842,United Kingdom,England,Derbyshire,https://www.parkrun.org.uk/poolsbrook
Porthcawl parkrun,51.476331,-3.705976,United Kingdom,Wales,County Borough of Bridgend,https://www.parkrun.org.uk/porthcawl
"Portobello parkrun, Edinburgh",55.950689,-3.122656,United Kingdom,Scotland,Edinburgh,https://www.parkrun.org.uk/portobello
Portrush parkrun,55.204638,-6.648788,United Kingdom,Northern Ireland,Antrim,https://www.parkrun.org.uk/portrush
Portsmouth Lakeside parkrun,50.840654,-1.08157,United Kingdom,England,Portsmouth,https://www.parkrun.org.uk/portsmouthlakeside
Potternewton parkrun,53.818446,-1.526274,United Kingdom,England,Leeds,https://www.parkrun.org.uk/potternewton
"Preston Park parkrun, Brighton",50.841557,-0.148616,United Kingdom,England,Brighton and Hove,https://www.parkrun.org.uk/prestonpark
Preston parkrun,53.751374,-2.703902,United Kingdom,England,Lancashire,https://www.parkrun.org.uk/preston
"Princes parkrun, Liverpool",53.386456,-2.956975,United Kingdom,England,Liverpool,https://www.parkrun.org.uk/princes
Prospect parkrun,51.448386,-1.00741,United Kingdom,England,Reading,https://www.parkrun.org.uk/prospect
Prudhoe Riverside parkrun,54.968071,-1.863141,United Kingdom,England,Northumberland,https://www.parkrun.org.uk/prudhoeriverside
Pymmes parkrun,51.61887,-0.066953,United Kingdom,England,Greater London,https://www.parkrun.org.uk/pymmes
Queen Elizabeth parkrun,50.956372,-0.978384,United Kingdom,England,Hampshire,https://www.parkrun.org.uk/queenelizabeth
"Queen’s parkrun, Belfast",54.555092,-5.963387,United Kingdom,Northern Ireland,Belfast,https://www.parkrun.org.uk/queens
"Queen’s parkrun, Glasgow",55.833509,-4.270076,United Kingdom,Scotland,Glasgow City,https://www.parkrun.org.uk/queensglasgow
Raphael parkrun,51.585798,0.19249,United Kingdom,England,Greater London,https://www.parkrun.org.uk/raphael
Reading parkrun,51.460384,-0.941573,United Kingdom,England,Wokingham,https://www.parkrun.org.uk/reading
Redcar parkrun,54.615225,-1.07902,United Kingdom,England,Redcar and Cleveland,https://www.parkrun.org.uk/redcar
Reigate Priory parkrun,51.23435,-0.208644,United Kingdom,England,Surrey,https://www.parkrun.org.uk/reigatepriory
Rendlesham Forest parkrun,52.083267,1.428606,United Kingdom,England,Suffolk,https://www.parkrun.org.uk/rendleshamforest
Richmond parkrun,51.451962,-0.292886,United Kingdom,England,Greater London,https://www.parkrun.org.uk/richmond
Rickmansworth parkrun,51.633087,-0.47589,United Kingdom,England,Hertfordshire,https://www.parkrun.org.uk/rickmansworth
Riddlesdown parkrun,51.318485,-0.079549,United Kingdom,England,Greater London,https://www.parkrun.org.uk/riddlesdown
Rising Sun parkrun,55.01998,-1.532028,United Kingdom,England,North Tyneside,https://www.parkrun.org.uk/risingsun
Riverfront parkrun,51.588559,-2.993317,United Kingdom,Wales,Newport,https://www.parkrun.org.uk/riverfront
Riverside parkrun,54.853983,-1.563277,United Kingdom,England,Durham,https://www.parkrun.org.uk/riverside
Roberts Park parkrun,53.841468,-1.793275,United Kingdom,England,Bradford,https://www.parkrun.org.uk/robertspark
Roding Valley parkrun,51.638607,0.066415,United Kingdom,England,Essex,https://www.parkrun.org.uk/rodingvalley
Rogiet parkrun,51.583268,-2.779965,United Kingdom,Wales,Monmouthshire,https://www.parkrun.org.uk/rogiet
Rosliston parkrun,52.754526,-1.639681,United Kingdom,England,Derbyshire,https://www.parkrun.org.uk/rosliston
Ross-on-Wye parkrun,51.912943,-2.594417,United Kingdom,England,Herefordshire,https://www.parkrun.org.uk/rossonwye
Rostrevor parkrun,54.099486,-6.193448,United Kingdom,Northern Ireland,Down,https://www.parkrun.org.uk/rostrevor
Rothay Park parkrun,54.431563,-2.969788,United Kingdom,England,Cumbria,https://www.parkrun.org.uk/rothaypark
Rother Valley parkrun,53.341508,-1.320226,United Kingdom,England,Rotherham,https://www.parkrun.org.uk/rothervalley
Rotherham parkrun,53.430538,-1.343218,United Kingdom,England,Rotherham,https://www.parkrun.org.uk/rotherham
Rothwell parkrun,53.750032,-1.473456,United Kingdom,England,Leeds,https://www.parkrun.org.uk/rothwell
Roundhay parkrun,53.83828,-1.496007,United Kingdom,England,Leeds,https://www.parkrun.org.uk/roundhay
Roundshaw Downs parkrun,51.352253,-0.11872,United Kingdom,England,Greater London,https://www.parkrun.org.uk/roundshaw
Royal Tunbridge Wells parkrun,51.133614,0.284851,United Kingdom,England,Kent,https://www.parkrun.org.uk/royaltunbridgewells
Ruchill parkrun,55.884538,-4.276162,United Kingdom,Scotland,Glasgow City,https://www.parkrun.org.uk/ruchill
Rugby parkrun,52.37318,-1.238464,United Kingdom,England,Warwickshire,https://www.parkrun.org.uk/rugby
Rushcliffe parkrun,52.882497,-1.149104,United Kingdom,England,Nottinghamshire,https://www.parkrun.org.uk/rushcliffe
Rushmere parkrun,51.947057,-0.674095,United Kingdom,England,Buckinghamshire,https://www.parkrun.org.uk/rushmere
Rushmoor parkrun,51.265798,-0.755847,United Kingdom,England,Hampshire,https://www.parkrun.org.uk/rushmoor
Ruthin Memorial Playing Fields parkrun,53.115985,-3.317265,United Kingdom,Wales,Denbighshire,https://www.parkrun.org.uk/ruthinmemorialplayingfields
Rutland Water parkrun,52.643712,-0.624447,United Kingdom,England,Rutland,https://www.parkrun.org.uk/rutlandwater
Salcey Forest parkrun,52.159223,-0.841556,United Kingdom,England,Northamptonshire,https://www.parkrun.org.uk/salceyforest
Sale Water parkrun,53.429585,-2.294545,United Kingdom,England,Trafford,https://www.parkrun.org.uk/salewater
Salisbury parkrun,51.061528,-1.789858,United Kingdom,England,Wiltshire,https://www.parkrun.org.uk/salisbury
Sandall Park parkrun,53.544969,-1.089474,United Kingdom,England,Doncaster,https://www.parkrun.org.uk/sandallpark
Sandhurst Memorial parkrun,51.343825,-0.791694,United Kingdom,England,Bracknell Forest,https://www.parkrun.org.uk/sandhurstmemorial
Sandringham parkrun,52.829752,0.504942,United Kingdom,England,Norfolk,https://www.parkrun.org.uk/sandringham
Sandwell Valley parkrun,52.521531,-1.97579,United Kingdom,England,Sandwell,https://www.parkrun.org.uk/sandwellvalley
Sandy Water parkrun,51.680293,-4.174644,United Kingdom,Wales,Carmarthenshire,https://www.parkrun.org.uk/sandywater
Scunthorpe parkrun,53.581755,-0.656476,United Kingdom,England,North Lincolnshire,https://www.parkrun.org.uk/scunthorpe
Seaford Beach parkrun,50.778986,0.079566,United Kingdom,England,East Sussex,https://www.parkrun.org.uk/seafordbeach
Seaton parkrun,50.703349,-3.072064,United Kingdom,England,Devon,https://www.parkrun.org.uk/seaton
Sedgefield parkrun,54.653008,-1.466289,United Kingdom,England,Durham,https://www.parkrun.org.uk/sedgefield
Selby parkrun,53.751824,-1.078398,United Kingdom,England,North Yorkshire,https://www.parkrun.org.uk/selby
Seven Fields parkrun,51.586619,-1.781711,United Kingdom,England,Swindon,https://www.parkrun.org.uk/sevenfields
Severn Bridge parkrun,51.619014,-2.664531,United Kingdom,Wales,Monmouthshire,https://www.parkrun.org.uk/severnbridge
Severn Valley Country parkrun,52.453316,-2.364842,United Kingdom,England,Shropshire,https://www.parkrun.org.uk/severnvalleycountry
Sewerby parkrun,54.103268,-0.160761,United Kingdom,England,East Yorkshire,https://www.parkrun.org.uk/sewerby
Sharpham Road Playing Fields parkrun,51.279496,-2.793181,United Kingdom,England,Somerset,https://www.parkrun.org.uk/sharphamroadplayingfields
Sheffield Castle parkrun,53.366782,-1.436827,United Kingdom,England,Sheffield,https://www.parkrun.org.uk/sheffieldcastle
Shepton Mallet parkrun,51.187513,-2.542461,United Kingdom,England,Somerset,https://www.parkrun.org.uk/sheptonmallet
Sheringham parkrun,52.928775,1.180601,United Kingdom,England,Norfolk,https://www.parkrun.org.uk/sheringham
Sherwood Pines parkrun,53.165828,-1.084839,United Kingdom,England,Nottinghamshire,https://www.parkrun.org.uk/sherwoodpines
Shipley Country parkrun,53.008339,-1.359978,United Kingdom,England,Derbyshire,https://www.parkrun.org.uk/shipleycountry
Shorne Woods parkrun,51.404426,0.418618,United Kingdom,England,Kent,https://www.parkrun.org.uk/shornewoods
Shrewsbury parkrun,52.706942,-2.75921,United Kingdom,England,Shropshire,https://www.parkrun.org.uk/shrewsbury
Silksworth parkrun,54.883911,-1.409099,United Kingdom,England,Sunderland,https://www.parkrun.org.uk/silksworth
Sittingbourne parkrun,51.354976,0.740569,United Kingdom,England,Kent,https://www.parkrun.org.uk/sittingbourne
Sixfields Upton parkrun,52.228528,-0.942236,United Kingdom,England,Northamptonshire,https://www.parkrun.org.uk/sixfieldsupton
Sixmilewater parkrun,54.750004,-5.998945,United Kingdom,Northern Ireland,Antrim,https://www.parkrun.org.uk/sixmilewater
Sizewell parkrun,52.210167,1.622193,United Kingdom,England,Suffolk,https://www.parkrun.org.uk/sizewell
Skipton parkrun,53.961331,-2.030004,United Kingdom,England,North Yorkshire,https://www.parkrun.org.uk/skipton
Sloughbottom parkrun,52.647255,1.266994,United Kingdom,England,Norfolk,https://www.parkrun.org.uk/sloughbottom
Snowden Field parkrun,52.673995,-0.164731,United Kingdom,England,Lincolnshire,https://www.parkrun.org.uk/snowdenfield
Soham Village College parkrun,52.329737,0.338064,United Kingdom,England,Cambridgeshire,https://www.parkrun.org.uk/sohamvillagecollege
Somerdale Pavilion parkrun,51.426469,-2.495689,United Kingdom,England,Bath and North East Somerset,https://www.parkrun.org.uk/somerdalepavilion
South Manchester parkrun,53.446072,-2.224689,United Kingdom,England,Manchester,https://www.parkrun.org.uk/southmanchester
South Norwood parkrun,51.396111,-0.059908,United Kingdom,England,Greater London,https://www.parkrun.org.uk/southnorwood
South Oxhey parkrun,51.632255,-0.398653,United Kingdom,England,Hertfordshire,https://www.parkrun.org.uk/southoxhey
South Shields parkrun,54.995687,-1.408052,United Kingdom,England,South Tyneside,https://www.parkrun.org.uk/southshields
South Woodham Ferrers parkrun,51.631642,0.613014,United Kingdom,England,Essex,https://www.parkrun.org.uk/southwoodhamferrers
Southall parkrun,51.509737,-0.36957,United Kingdom,England,Greater London,https://www.parkrun.org.uk/southall
Southampton parkrun,50.923624,-1.407766,United Kingdom,England,Southampton,https://www.parkrun.org.uk/southampton
Southend parkrun,51.523431,0.787526,United Kingdom,England,Southend-on-Sea,https://www.parkrun.org.uk/southend
Southport parkrun,53.656276,-2.985341,United Kingdom,England,Sefton,https://www.parkrun.org.uk/southport
Southsea parkrun,50.778853,-1.081316,United Kingdom,England,Portsmouth,https://www.parkrun.org.uk/southsea
Southwark parkrun,51.494242,-0.053151,United Kingdom,England,Greater London,https://www.parkrun.org.uk/southwark
Southwick Country parkrun,51.306461,-2.234092,United Kingdom,England,Wiltshire,https://www.parkrun.org.uk/southwickcountrypark
"Springburn parkrun, Glasgow",55.889857,-4.224823,United Kingdom,Scotland,Glasgow City,https://www.parkrun.org.uk/springburn
Squerryes Winery parkrun,51.275986,0.08667,United Kingdom,England,Kent,https://www.parkrun.org.uk/squerryeswinery
St Albans parkrun,51.75193,-0.355371,United Kingdom,England,Hertfordshire,https://www.parkrun.org.uk/stalbans
St Andrews parkrun,56.317711,-2.838234,United Kingdom,Scotland,Fife,https://www.parkrun.org.uk/standrews
St Helens parkrun,53.46322,-2.744088,United Kingdom,England,St. Helens,https://www.parkrun.org.uk/sthelens
St Mary’s parkrun,50.729456,-2.760744,United Kingdom,England,Dorset,https://www.parkrun.org.uk/stmarys
Stamford Park parkrun,53.490901,-2.066163,United Kingdom,England,Tameside,https://www.parkrun.org.uk/stamfordpark
Stevenage parkrun,51.902634,-0.17993,United Kingdom,England,Hertfordshire,https://www.parkrun.org.uk/stevenage
"Stewart parkrun, Middlesbrough",54.53809,-1.203561,United Kingdom,England,Middlesbrough,https://www.parkrun.org.uk/stewart
Stonehaven parkrun,56.969993,-2.212502,United Kingdom,Scotland,Aberdeenshire,https://www.parkrun.org.uk/stonehaven
Stonehouse parkrun,51.752554,-2.287804,United Kingdom,England,Gloucestershire,https://www.parkrun.org.uk/stonehouse
Storeys Field parkrun,52.219098,0.089579,United Kingdom,England,Cambridgeshire,https://www.parkrun.org.uk/storeysfield
Stormont parkrun,54.598318,-5.837749,United Kingdom,Northern Ireland,Belfast,https://www.parkrun.org.uk/stormont
"Stratford Park parkrun, Stroud",51.74897,-2.225007,United Kingdom,England,Gloucestershire,https://www.parkrun.org.uk/stratfordparkstroud
Stratford-upon-Avon parkrun,52.184998,-1.701445,United Kingdom,England,Warwickshire,https://www.parkrun.org.uk/stratforduponavon
Strathclyde parkrun,55.789631,-4.031425,United Kingdom,Scotland,North Lanarkshire,https://www.parkrun.org.uk/strathclyde
Street parkrun,51.129515,-2.729089,United Kingdom,England,Somerset,https://www.parkrun.org.uk/street
Stretford parkrun,53.446121,-2.290281,United Kingdom,England,Trafford,https://www.parkrun.org.uk/stretford
Sunny Hill parkrun,51.598193,-0.229717,United Kingdom,England,Greater London,https://www.parkrun.org.uk/sunnyhill
Sutcliffe parkrun,51.454343,0.026739,United Kingdom,England,Greater London,https://www.parkrun.org.uk/sutcliffe
Sutton Manor parkrun,53.411392,-2.726901,United Kingdom,England,St. Helens,https://www.parkrun.org.uk/suttonmanor
Sutton Park parkrun,52.558505,-1.867129,United Kingdom,England,Birmingham,https://www.parkrun.org.uk/suttonpark
Swaffham parkrun,52.638607,0.688461,United Kingdom,England,Norfolk,https://www.parkrun.org.uk/swaffham
Swanley parkrun,51.404175,0.17519,United Kingdom,England,Kent,https://www.parkrun.org.uk/swanley
Swansea Bay parkrun,51.611029,-3.967061,United Kingdom,Wales,City and County of Swansea,https://www.parkrun.org.uk/swanseabay
Talkin Tarn Country Park parkrun,54.924753,-2.707392,United Kingdom,England,Cumbria,https://www.parkrun.org.uk/talkintarncountrypark
Tamar Lakes parkrun,50.879837,-4.433418,United Kingdom,England,Cornwall,https://www.parkrun.org.uk/tamarlakes
Tamar Trails parkrun,50.535163,-4.201763,United Kingdom,England,Devon,https://www.parkrun.org.uk/tamartrails
Tawd Valley parkrun,53.550281,-2.775829,United Kingdom,England,Lancashire,https://www.parkrun.org.uk/tawdvalley
Teignmouth Promenade parkrun,50.544428,-3.494987,United Kingdom,England,Devon,https://www.parkrun.org.uk/teignmouthpromenade
Telford parkrun,52.67123,-2.447934,United Kingdom,England,Telford and Wrekin,https://www.parkrun.org.uk/telford
Temple Newsam parkrun,53.784781,-1.456461,United Kingdom,England,Leeds,https://www.parkrun.org.uk/templenewsam
Tetbury Goods Shed parkrun,51.637222,-2.155818,United Kingdom,England,Gloucestershire,https://www.parkrun.org.uk/tetburygoodsshed
Tewkesbury parkrun,51.987666,-2.159373,United Kingdom,England,Gloucestershire,https://www.parkrun.org.uk/tewkesbury
"The Cinder Track parkrun, Whitby",54.4779,-0.620751,United Kingdom,England,North Yorkshire,https://www.parkrun.org.uk/thecindertrack
The Great Field parkrun,50.713642,-2.458095,United Kingdom,England,Dorset,https://www.parkrun.org.uk/thegreatfield
"The Leas parkrun, Minster",51.434038,0.80213,United Kingdom,England,Kent,https://www.parkrun.org.uk/theleas
The Old Showfield parkrun,51.236186,-2.308238,United Kingdom,England,Somerset,https://www.parkrun.org.uk/theoldshowfield
The Pastures parkrun,55.418455,-1.705393,United Kingdom,England,Northumberland,https://www.parkrun.org.uk/thepastures
The Wammy parkrun,53.017811,-2.238701,United Kingdom,England,Staffordshire,https://www.parkrun.org.uk/thewammy
Thetford parkrun,52.4156,0.743766,United Kingdom,England,Norfolk,https://www.parkrun.org.uk/thetford
Thomas Mills parkrun,52.228375,1.325981,United Kingdom,England,Suffolk,https://www.parkrun.org.uk/thomasmills
Thornbury parkrun,51.606368,-2.530114,United Kingdom,England,South Gloucestershire,https://www.parkrun.org.uk/thornbury
"Thurrock parkrun, Orsett Heath",51.491427,0.363436,United Kingdom,England,Thurrock,https://www.parkrun.org.uk/thurrock
Thurso parkrun,58.589573,-3.521554,United Kingdom,Scotland,Highland,https://www.parkrun.org.uk/thurso
Tidworth parkrun,51.224947,-1.667571,United Kingdom,England,Wiltshire,https://www.parkrun.org.uk/tidworth
Tilgate parkrun,51.097,-0.175623,United Kingdom,England,West Sussex,https://www.parkrun.org.uk/tilgate
"Tollcross parkrun, Glasgow",55.847494,-4.179461,United Kingdom,Scotland,Glasgow City,https://www.parkrun.org.uk/tollcross
Tonbridge parkrun,51.197605,0.270174,United Kingdom,England,Kent,https://www.parkrun.org.uk/tonbridge
Tooting Common parkrun,51.433342,-0.14677,United Kingdom,England,Greater London,https://www.parkrun.org.uk/tootingcommon
Torbay Velopark parkrun,50.423441,-3.564297,United Kingdom,England,Torbay,https://www.parkrun.org.uk/torbayvelopark
Torvean parkrun,57.462669,-4.24886,United Kingdom,Scotland,Highland,https://www.parkrun.org.uk/torvean
Town Moor parkrun,54.988451,-1.617143,United Kingdom,England,Newcastle upon Tyne,https://www.parkrun.org.uk/townmoor
Trelai Park parkrun,51.478969,-3.232766,United Kingdom,Wales,Cardiff,https://www.parkrun.org.uk/trelaipark
Trelissick parkrun,50.217331,-5.02826,United Kingdom,England,Cornwall,https://www.parkrun.org.uk/trelissick
Tremorfa parkrun,51.486237,-3.132727,United Kingdom,Wales,Cardiff,https://www.parkrun.org.uk/tremorfa
Trentham Gardens parkrun,52.963874,-2.199424,United Kingdom,England,Staffordshire,https://www.parkrun.org.uk/trenthamgardens
Troon parkrun,55.541413,-4.670058,United Kingdom,Scotland,South Ayrshire,https://www.parkrun.org.uk/troon
Tyne Green parkrun,54.977878,-2.101526,United Kingdom,England,Northumberland,https://www.parkrun.org.uk/tynegreen
Uckfield parkrun,50.977857,0.11306,United Kingdom,England,East Sussex,https://www.parkrun.org.uk/uckfield
University of Stirling parkrun,56.147334,-3.924236,United Kingdom,Scotland,Stirling,https://www.parkrun.org.uk/universityofstirling
University Parks parkrun,51.761468,-1.251068,United Kingdom,England,Oxfordshire,https://www.parkrun.org.uk/universityparks
Upton Court parkrun,51.49616,-0.577525,United Kingdom,England,Slough,https://www.parkrun.org.uk/uptoncourt
Upton House parkrun,50.734891,-2.013428,United Kingdom,England,"Bournemouth, Christchurch and Poole Council",https://www.parkrun.org.uk/uptonhouse
Ury Riverside parkrun,57.291953,-2.372062,United Kingdom,Scotland,Aberdeenshire,https://www.parkrun.org.uk/uryriverside
Valentines parkrun,51.56749,0.07198,United Kingdom,England,Greater London,https://www.parkrun.org.uk/valentines
"Valley parkrun, Newtownabbey",54.659949,-5.928342,United Kingdom,Northern Ireland,Antrim,https://www.parkrun.org.uk/valley
Victoria Dock parkrun,51.505363,0.018775,United Kingdom,England,Greater London,https://www.parkrun.org.uk/victoriadock
"Victoria parkrun, Glasgow",55.877504,-4.332347,United Kingdom,Scotland,Glasgow City,https://www.parkrun.org.uk/victoria
Vogrie parkrun,55.856879,-2.995012,United Kingdom,Scotland,Midlothian,https://www.parkrun.org.uk/vogrie
Wakefield Thornes parkrun,53.672488,-1.509682,United Kingdom,England,Wakefield,https://www.parkrun.org.uk/wakefieldthornes
"Wallace parkrun, Lisburn",54.516511,-6.036816,United Kingdom,Northern Ireland,Antrim,https://www.parkrun.org.uk/wallace
Wallaceneuk parkrun,55.585864,-2.448162,United Kingdom,Scotland,Scottish Borders,https://www.parkrun.org.uk/wallaceneuk
Walmer and Deal Seafront parkrun,51.2095,1.403179,United Kingdom,England,Kent,https://www.parkrun.org.uk/walmeranddealseafront
Walsall Arboretum parkrun,52.58725,-1.966252,United Kingdom,England,Walsall,https://www.parkrun.org.uk/walsall
Walthamstow parkrun,51.602666,-0.007854,United Kingdom,England,Greater London,https://www.parkrun.org.uk/walthamstow
Wanstead Flats parkrun,51.56078,0.014977,United Kingdom,England,Greater London,https://www.parkrun.org.uk/wansteadflats
Warrington parkrun,53.384221,-2.574685,United Kingdom,England,Warrington,https://www.parkrun.org.uk/warrington
Warwick Racecourse parkrun,52.280789,-1.595954,United Kingdom,England,Warwickshire,https://www.parkrun.org.uk/warwickracecourse
"Watergrove parkrun, Rochdale",53.657034,-2.131777,United Kingdom,England,Rochdale,https://www.parkrun.org.uk/watergrove
Watermead Country Park parkrun,52.690658,-1.103213,United Kingdom,England,Leicestershire,https://www.parkrun.org.uk/watermeadcountrypark
Watermeadows parkrun,52.13458,-0.988391,United Kingdom,England,Northamptonshire,https://www.parkrun.org.uk/watermeadows
"Waterworks parkrun, Belfast",54.619299,-5.942613,United Kingdom,Northern Ireland,Belfast,https://www.parkrun.org.uk/waterworks
Wendover Woods parkrun,51.76894,-0.716782,United Kingdom,England,Buckinghamshire,https://www.parkrun.org.uk/wendoverwoods
Wepre parkrun,53.205552,-3.056846,United Kingdom,Wales,Flintshire,https://www.parkrun.org.uk/wepre
West Links parkrun,56.551299,-2.602859,United Kingdom,Scotland,Angus,https://www.parkrun.org.uk/westlinks
Westmill parkrun,51.821422,-0.060813,United Kingdom,England,Hertfordshire,https://www.parkrun.org.uk/westmill
Wetherby parkrun,53.925673,-1.392197,United Kingdom,England,Leeds,https://www.parkrun.org.uk/wetherby
Weymouth parkrun,50.624322,-2.444025,United Kingdom,England,Dorset,https://www.parkrun.org.uk/weymouth
Whinlatter Forest parkrun,54.610017,-3.22446,United Kingdom,England,Cumbria,https://www.parkrun.org.uk/whinlatterforest
Whitehaven parkrun,54.524733,-3.573636,United Kingdom,England,Cumbria,https://www.parkrun.org.uk/whitehaven
Whiteley parkrun,50.884669,-1.250819,United Kingdom,England,Hampshire,https://www.parkrun.org.uk/whiteley
Whitley Bay parkrun,55.048875,-1.448736,United Kingdom,England,North Tyneside,https://www.parkrun.org.uk/whitleybay
Whitstable parkrun,51.365295,1.041942,United Kingdom,England,Kent,https://www.parkrun.org.uk/whitstable
Wickford Memorial parkrun,51.619452,0.535186,United Kingdom,England,Essex,https://www.parkrun.org.uk/wickfordmemorial
Widnes parkrun,53.374508,-2.730069,United Kingdom,England,Halton,https://www.parkrun.org.uk/widnes
Wilmslow parkrun,53.331288,-2.231588,United Kingdom,England,Cheshire East,https://www.parkrun.org.uk/wilmslow
Wimbledon Common parkrun,51.442078,-0.232215,United Kingdom,England,Greater London,https://www.parkrun.org.uk/wimbledon
Wimpole Estate parkrun,52.140442,-0.047207,United Kingdom,England,Cambridgeshire,https://www.parkrun.org.uk/wimpoleestate
Winchester parkrun,51.069286,-1.310849,United Kingdom,England,Hampshire,https://www.parkrun.org.uk/winchester
Windy Nook parkrun,54.940189,-1.563025,United Kingdom,England,Gateshead,https://www.parkrun.org.uk/windynook
Witney parkrun,51.789974,-1.513356,United Kingdom,England,Oxfordshire,https://www.parkrun.org.uk/witney
Witton parkrun,53.74055,-2.517211,United Kingdom,England,Blackburn with Darwen,https://www.parkrun.org.uk/witton
Woking parkrun,51.311708,-0.556204,United Kingdom,England,Surrey,https://www.parkrun.org.uk/woking
Wollaton Hall parkrun,52.951893,-1.211018,United Kingdom,England,Nottingham,https://www.parkrun.org.uk/wollatonhall
Wolverhampton parkrun,52.588775,-2.140875,United Kingdom,England,Wolverhampton,https://www.parkrun.org.uk/wolverhampton
Woodbank parkrun,53.408405,-2.130945,United Kingdom,England,Stockport,https://www.parkrun.org.uk/woodbank
Woodgate Valley Country Park parkrun,52.449447,-2.005952,United Kingdom,England,Birmingham,https://www.parkrun.org.uk/woodgatevalleycountrypark
Woodhouse Moor parkrun,53.808582,-1.560059,United Kingdom,England,Leeds,https://www.parkrun.org.uk/woodhousemoor
Woodley parkrun,51.45418,-0.903669,United Kingdom,England,Wokingham,https://www.parkrun.org.uk/woodley
Woolacombe Dunes parkrun,51.159264,-4.209982,United Kingdom,England,Devon,https://www.parkrun.org.uk/woolacombedunes
Worcester parkrun,52.186989,-2.178726,United Kingdom,England,Worcestershire,https://www.parkrun.org.uk/worcester
Worcester Pitchcroft parkrun,52.201513,-2.231964,United Kingdom,England,Worcestershire,https://www.parkrun.org.uk/worcesterpitchcroft
Workington parkrun,54.647169,-3.539767,United Kingdom,England,Cumbria,https://www.parkrun.org.uk/workington
Wormwood Scrubs parkrun,51.520412,-0.238523,United Kingdom,England,Greater London,https://www.parkrun.org.uk/wormwoodscrubs
Worsley Woods parkrun,53.494328,-2.359056,United Kingdom,England,Salford,https://www.parkrun.org.uk/worsleywoods
Worthing parkrun,50.810312,-0.3645,United Kingdom,England,West Sussex,https://www.parkrun.org.uk/worthing
Wotton parkrun,51.633149,-2.368786,United Kingdom,England,Gloucestershire,https://www.parkrun.org.uk/wotton
Wycombe Rye parkrun,51.62337,-0.74009,United Kingdom,England,Buckinghamshire,https://www.parkrun.org.uk/wycomberye
Wyre Forest parkrun,52.365002,-2.369798,United Kingdom,England,Worcestershire,https://www.parkrun.org.uk/wyreforest
Wythenshawe parkrun,53.405502,-2.288139,United Kingdom,England,Manchester,https://www.parkrun.org.uk/wythenshawe
York parkrun,53.935375,-1.101379,United Kingdom,England,York,https://www.parkrun.org.uk/york
