Event,Latitude,Longitude,Country,State,County,Website
Aachener Weiher parkrun,50.934298,6.927553,Germany,North Rhine-Westphalia,Cologne District,https://www.parkrun.com.de/aachenerweiher
Aberbeeg parkrun,51.711165,-3.144286,United Kingdom,Wales,Blaenau Gwent,https://www.parkrun.org.uk/aberbeeg
Aberdare parkrun,51.718796,-3.460089,United Kingdom,Wales,Rhondda Cynon Taf,https://www.parkrun.org.uk/aberdare
Aberdeen parkrun,57.173898,-2.086256,United Kingdom,Scotland,Aberdeen City,https://www.parkrun.org.uk/aberdeen
Aberystwyth parkrun,52.414546,-4.080401,United Kingdom,Wales,Ceredigion,https://www.parkrun.org.uk/aberystwyth
Abingdon parkrun,51.667957,-1.277429,United Kingdom,England,Oxfordshire,https://www.parkrun.org.uk/abingdon
Achill Greenway parkrun,53.935862,-9.915749,Ireland,Connacht,Mayo,https://www.parkrun.ie/achillgreenway
Aggeneys parkrun,-29.230412,18.845229,South Africa,Northern Cape,Namakwa District Municipality,https://www.parkrun.co.za/aggeneys
Agnew parkrun,54.908188,-5.0349,United Kingdom,Scotland,Dumfries and Galloway,https://www.parkrun.org.uk/agnew
Airlie Beach parkrun,-20.267153,148.711122,Australia,Queensland,Whitsunday,https://www.parkrun.com.au/airliebeach
Akkerendam Nature Reserve parkrun,-31.455321,19.773753,South Africa,Northern Cape,Namakwa District Municipality,https://www.parkrun.co.za/akkerendamnaturereserve
"Albert parkrun, Melbourne",-37.843521,144.96312,Australia,Victoria,Port Phillip,https://www.parkrun.com.au/albertmelbourne
"Albert parkrun, Middlesbrough",54.564972,-1.231788,United Kingdom,England,Middlesbrough,https://www.parkrun.org.uk/albert
Alberts Farm parkrun,-26.161115,27.968273,South Africa,Gauteng,City of Johannesburg Metropolitan Municipality,https://www.parkrun.co.za/albertsfarm
Albury Wodonga parkrun,-36.0873,146.88886,Australia,New South Wales,Albury Municipality,https://www.parkrun.com.au/alburywodonga
Aldenham parkrun,51.647953,-0.316507,United Kingdom,England,Hertfordshire,https://www.parkrun.org.uk/aldenham
Alderford Lake parkrun,52.953181,-2.675436,United Kingdom,England,Shropshire,https://www.parkrun.org.uk/alderfordlake
Alderley Park parkrun,53.2793,-2.231854,United Kingdom,England,Cheshire East,https://www.parkrun.org.uk/alderleypark
Aldinga Beach parkrun,-35.287768,138.444983,Australia,South Australia,Onkaparinga,https://www.parkrun.com.au/aldingabeach
"Alexandra parkrun, Moss Side",53.450142,-2.248827,United Kingdom,England,Manchester,https://www.parkrun.org.uk/alexandra
Alice Holt parkrun,51.168607,-0.83814,United Kingdom,England,Hampshire,https://www.parkrun.org.uk/aliceholt
Aliwal North parkrun,-30.682118,26.727413,South Africa,Eastern Cape,Joe Gqabi District Municipality,https://www.parkrun.co.za/aliwalnorth
Allerpark parkrun,52.435226,10.817604,Germany,Lower Saxony,Wolfsburg,https://www.parkrun.com.de/allerpark
Ally Pally parkrun,51.595936,-0.12233,United Kingdom,England,Greater London,https://www.parkrun.org.uk/allypally
Alness parkrun,57.694306,-4.256669,United Kingdom,Scotland,Highland,https://www.parkrun.org.uk/alness
Alstervorland parkrun,53.573708,10.002464,Germany,Hamburg,,https://www.parkrun.com.de/alstervorland
Alton Water parkrun,51.974806,1.134021,United Kingdom,England,Suffolk,https://www.parkrun.org.uk/altonwater
Altona Beach parkrun,-37.875236,144.811911,Australia,Victoria,Hobsons Bay,https://www.parkrun.com.au/altonabeach
Alvaston parkrun,52.906173,-1.440173,United Kingdom,England,Derby,https://www.parkrun.org.uk/alvaston
Amager Fælled parkrun,55.653057,12.575108,Denmark,Capital Region,Copenhagen,https://www.parkrun.dk/amager
Amager Strandpark parkrun,55.662538,12.635341,Denmark,Capital Region,,https://www.parkrun.dk/amagerstrandpark
Amanzimtoti parkrun,-30.049276,30.890567,South Africa,KwaZulu-Natal,eThekwini Metropolitan Municipality,https://www.parkrun.co.za/amanzimtoti
Ambleside parkrun,49.326794,-123.155175,Canada,British Columbia,Metro Vancouver Regional District,https://www.parkrun.ca/ambleside
Amsterdamse Bos parkrun,52.325634,4.855931,Netherlands,North Holland,Amstelveen,https://www.parkrun.co.nl/amsterdamsebos
Anacostia parkrun,38.868085,-76.995023,USA,"Washington, D.C.",Washington,https://www.parkrun.us/anacostia
Ancholme Valley Way parkrun,53.553676,-0.496441,United Kingdom,England,North Lincolnshire,https://www.parkrun.org.uk/ancholmevalleyway
Anderson parkrun,-39.522869,176.864169,New Zealand,Hawke's Bay,Napier City,https://www.parkrun.co.nz/anderson
Andover parkrun,51.221092,-1.512766,United Kingdom,England,Hampshire,https://www.parkrun.org.uk/andover
Anstey Hill Recreation parkrun,-34.825885,138.728048,Australia,South Australia,Tea Tree Gully,https://www.parkrun.com.au/ansteyhillrecreation
Antrim parkrun,54.717078,-6.238818,United Kingdom,Northern Ireland,Antrim,https://www.parkrun.org.uk/antrim
Aplins Weir parkrun,-19.302328,146.782361,Australia,Queensland,Townsville,https://www.parkrun.com.au/aplinsweir
Applecross parkrun,-32.006932,115.834885,Australia,Western Australia,Melville,https://www.parkrun.com.au/applecross
Ara Harakeke parkrun,-41.075446,174.874347,New Zealand,Wellington,Porirua City,https://www.parkrun.co.nz/araharakeke
Ararat parkrun,-37.279712,142.928756,Australia,Victoria,Ararat,https://www.parkrun.com.au/ararat
Ardgillan parkrun,53.586088,-6.161152,Ireland,Leinster,Dublin,https://www.parkrun.ie/ardgillan
Armagh parkrun,54.339812,-6.652951,United Kingdom,Northern Ireland,Armagh,https://www.parkrun.org.uk/armagh
Armidale parkrun,-30.491998,151.639419,Australia,New South Wales,Armidale Regional,https://www.parkrun.com.au/armidale
Armley parkrun,53.800347,-1.590893,United Kingdom,England,Leeds,https://www.parkrun.org.uk/armley
Arrow Rest parkrun,-25.776373,27.828162,South Africa,North-West,Bojanala Platinum,https://www.parkrun.co.za/arrowrest
Arrow Valley parkrun,52.29362,-1.906573,United Kingdom,England,Worcestershire,https://www.parkrun.org.uk/arrowvalley
Ashbourne Recreation Ground parkrun,53.018719,-1.727477,United Kingdom,England,Derbyshire,https://www.parkrun.org.uk/ashbournerecreationground
Ashburton parkrun,-29.641673,30.468107,South Africa,KwaZulu-Natal,uMgungundlovu District Municipality,https://www.parkrun.co.za/ashburton
Ashford parkrun,51.14347,0.864218,United Kingdom,England,Kent,https://www.parkrun.org.uk/ashford
Ashgrove parkrun,-27.442334,152.972975,Australia,Queensland,Brisbane,https://www.parkrun.com.au/ashgrove
Ashton Court parkrun,51.443592,-2.639948,United Kingdom,England,North Somerset,https://www.parkrun.org.uk/ashtoncourt
Aspen parkrun,39.187266,-106.852397,USA,Colorado,Pitkin,https://www.parkrun.us/aspen
Atherton parkrun,-17.275414,145.471686,Australia,Queensland,Tablelands,https://www.parkrun.com.au/atherton
Athlone parkrun,53.419271,-7.904069,Ireland,Leinster,Westmeath,https://www.parkrun.ie/athlone
Atholl parkrun,-26.128736,28.065948,South Africa,Gauteng,City of Johannesburg Metropolitan Municipality,https://www.parkrun.co.za/atholl
Atlasville parkrun,-26.160156,28.285877,South Africa,Gauteng,Ekurhuleni Metropolitan Municipality,https://www.parkrun.co.za/atlasville
Aurora parkrun,-37.622365,145.00465,Australia,Victoria,Whittlesea,https://www.parkrun.com.au/aurora
Aveley parkrun,-31.789954,115.988052,Australia,Western Australia,Swan,https://www.parkrun.com.au/aveley
"Avery Beach parkrun, Huntsville",45.321961,-79.232377,Canada,Ontario,District Municipality of Muskoka,https://www.parkrun.ca/averybeach
Aviemore parkrun,57.205275,-3.818635,United Kingdom,Scotland,Highland,https://www.parkrun.org.uk/aviemore
Avondale Forest parkrun,52.908152,-6.225626,Ireland,Leinster,Wicklow,https://www.parkrun.ie/avondaleforest
Avondale University College parkrun,-33.088354,151.463247,Australia,New South Wales,Lake Macquarie Shire,https://www.parkrun.com.au/avondaleuniversitycollege
Aylesbury parkrun,51.83162,-0.838394,United Kingdom,England,Buckinghamshire,https://www.parkrun.org.uk/aylesbury
Ayr parkrun,55.436189,-4.624316,United Kingdom,Scotland,South Ayrshire,https://www.parkrun.org.uk/ayr
Babbs Mill parkrun,52.489833,-1.746034,United Kingdom,England,Solihull,https://www.parkrun.org.uk/babbsmill
Bairnsdale parkrun,-37.823487,147.632774,Australia,Victoria,East Gippsland,https://www.parkrun.com.au/bairnsdale
Balclutha parkrun,-46.238883,169.731177,New Zealand,Otago,Clutha District,https://www.parkrun.co.nz/balclutha
Ballina Coast parkrun,-28.869637,153.576356,Australia,New South Wales,Ballina,https://www.parkrun.com.au/ballinacoast
Ballina parkrun,54.120048,-9.146141,Ireland,Connacht,Mayo,https://www.parkrun.ie/ballina
Ballinamore Greenway parkrun,54.055773,-7.794239,Ireland,Connacht,Leitrim,https://www.parkrun.ie/ballinamoregreenway
Ballincollig parkrun,51.891833,-8.605349,Ireland,Munster,Cork,https://www.parkrun.ie/ballincollig
Ballito parkrun,-29.492418,31.18044,South Africa,KwaZulu-Natal,iLembe District Municipality,https://www.parkrun.co.za/ballito
Baltimore and Annapolis Trail parkrun,39.121671,-76.5901,USA,Maryland,Anne Arundel,https://www.parkrun.us/baltimoreandannapolistrail
Balyang Sanctuary parkrun,-38.166457,144.331179,Australia,Victoria,Greater Geelong,https://www.parkrun.com.au/balyangsanctuary
Banbury parkrun,52.068807,-1.332318,United Kingdom,England,Oxfordshire,https://www.parkrun.org.uk/banbury
"Bangor parkrun, Northern Ireland",54.660024,-5.661693,United Kingdom,Northern Ireland,Down,https://www.parkrun.org.uk/bangor
Bannockburn Bush parkrun,-38.063066,144.142907,Australia,Victoria,Golden Plains,https://www.parkrun.com.au/bannockburnbush
Banstead Woods parkrun,51.307648,-0.184225,United Kingdom,England,Surrey,https://www.parkrun.org.uk/banstead
Bapsfontein Hotel parkrun,-26.004296,28.425336,South Africa,Gauteng,Ekurhuleni Metropolitan Municipality,https://www.parkrun.co.za/bapsfonteinhotel
Barberton parkrun,-25.76011,31.049736,South Africa,Mpumalanga,Ehlanzeni District,https://www.parkrun.co.za/barberton
Barclay parkrun,51.759056,-0.019442,United Kingdom,England,Hertfordshire,https://www.parkrun.org.uk/barclay
Bargara parkrun,-24.806914,152.456905,Australia,Queensland,Bundaberg,https://www.parkrun.com.au/bargara
Baringa parkrun,-26.806829,153.080945,Australia,Queensland,Sunshine Coast,https://www.parkrun.com.au/baringa
Barking parkrun,51.545894,0.087312,United Kingdom,England,Greater London,https://www.parkrun.org.uk/barking
Barnsley parkrun,53.544369,-1.486115,United Kingdom,England,Barnsley,https://www.parkrun.org.uk/barnsley
Barnstaple parkrun,51.072561,-4.053612,United Kingdom,England,Devon,https://www.parkrun.org.uk/barnstaple
Barrow parkrun,54.117706,-3.218855,United Kingdom,England,Cumbria,https://www.parkrun.org.uk/barrow
Barry Curtis parkrun,-36.9597,174.914382,New Zealand,Auckland,Auckland,https://www.parkrun.co.nz/barrycurtis
Barry Island parkrun,51.390202,-3.271371,United Kingdom,Wales,Vale of Glamorgan,https://www.parkrun.org.uk/barryisland
Bartley Park parkrun,50.914371,-1.509865,United Kingdom,England,Hampshire,https://www.parkrun.org.uk/bartleypark
Barton Trail parkrun,44.118501,-79.113992,Canada,Ontario,Durham,https://www.parkrun.ca/bartontrail
Basildon parkrun,51.577778,0.499615,United Kingdom,England,Essex,https://www.parkrun.org.uk/basildon
Basingstoke parkrun,51.258831,-1.082035,United Kingdom,England,Hampshire,https://www.parkrun.org.uk/basingstoke
Batemans Bay parkrun,-35.712112,150.185995,Australia,New South Wales,Eurobodalla,https://www.parkrun.com.au/batemansbay
Bath Skyline parkrun,51.364717,-2.338425,United Kingdom,England,Bath and North East Somerset,https://www.parkrun.org.uk/bathskyline
Bathurst parkrun,-33.414176,149.586917,Australia,New South Wales,Bathurst Regional,https://www.parkrun.com.au/bathurst
Baxter parkrun,-24.891447,113.654841,Australia,Western Australia,-Unknown-,https://www.parkrun.com.au/baxter
Bayview Road parkrun,-20.729535,116.806181,Australia,Western Australia,Karratha,https://www.parkrun.com.au/bayviewroad
Beach Strip parkrun,43.259467,-79.76563,Canada,Ontario,Hamilton,https://www.parkrun.ca/beachstrip
Beacon parkrun,52.685891,-1.83863,United Kingdom,England,Staffordshire,https://www.parkrun.org.uk/beacon
Bear Creek Greenbelt parkrun,32.927592,-97.230411,USA,Texas,Tarrant,https://www.parkrun.us/bearcreekgreenbelt
Beatrixpark parkrun,52.376801,5.199276,Netherlands,Flevoland,Gemeente Almere,https://www.parkrun.co.nl/beatrixpark
Beaufort Lake parkrun,-37.439405,143.382552,Australia,Victoria,Pyrenees,https://www.parkrun.com.au/beaufortlake
Beckenham Place parkrun,51.41853,-0.01959,United Kingdom,England,Greater London,https://www.parkrun.org.uk/beckenhamplace
Beckton parkrun,51.51176,0.046542,United Kingdom,England,Greater London,https://www.parkrun.org.uk/beckton
Bedfont Lakes parkrun,51.440762,-0.451523,United Kingdom,England,Greater London,https://www.parkrun.org.uk/bedfont
Bedford parkrun,52.148125,-0.459366,United Kingdom,England,Bedford,https://www.parkrun.org.uk/bedford
Bedgebury Pinetum parkrun,51.071871,0.450168,United Kingdom,England,Kent,https://www.parkrun.org.uk/bedgeburypinetum
Bedworth parkrun,52.476054,-1.47027,United Kingdom,England,Warwickshire,https://www.parkrun.org.uk/bedworth
Beeston parkrun,52.913592,-1.201737,United Kingdom,England,Nottinghamshire,https://www.parkrun.org.uk/beeston
Bega parkrun,-36.668409,149.852269,Australia,New South Wales,Bega Valley,https://www.parkrun.com.au/bega
Belfast Victoria parkrun,54.608785,-5.881573,United Kingdom,Northern Ireland,Belfast,https://www.parkrun.org.uk/belfastvictoria
Bellerive parkrun,-42.878181,147.37175,Australia,Tasmania,Clarence,https://www.parkrun.com.au/bellerive
Bellevue parkrun,46.500362,-84.298049,Canada,Ontario,Algoma,https://www.parkrun.ca/bellevue
Bells Parade parkrun,-41.228831,146.401326,Australia,Tasmania,Latrobe,https://www.parkrun.com.au/bellsparade
Bellville parkrun,-33.890643,18.629274,South Africa,Western Cape,City of Cape Town,https://www.parkrun.co.za/bellville
Belton House parkrun,52.942743,-0.620021,United Kingdom,England,Lincolnshire,https://www.parkrun.org.uk/beltonhouse
Belvoir Castle parkrun,52.894882,-0.786835,United Kingdom,England,Leicestershire,https://www.parkrun.org.uk/belvoircastle
Benalla Botanical Gardens parkrun,-36.553856,145.977439,Australia,Victoria,Benalla,https://www.parkrun.com.au/benallabotanicalgardens
Bendigo Botanic Gardens parkrun,-36.725618,144.305636,Australia,Victoria,Greater Bendigo,https://www.parkrun.com.au/bendigobotanicgardens
Bere Island parkrun,51.632369,-9.81755,Ireland,Munster,Cork,https://www.parkrun.ie/bereisland
Berkeley Green parkrun,51.690962,-2.497513,United Kingdom,England,Gloucestershire,https://www.parkrun.org.uk/berkeleygreen
Berrinba parkrun,-27.665606,153.077193,Australia,Queensland,Logan,https://www.parkrun.com.au/berrinba
Berwick Springs parkrun,-38.062069,145.322932,Australia,Victoria,Casey,https://www.parkrun.com.au/berwicksprings
Berwick Waters parkrun,-38.078218,145.342965,Australia,Victoria,Casey,https://www.parkrun.com.au/berwickwaters
Bestwood Village parkrun,53.022132,-1.171188,United Kingdom,England,Nottinghamshire,https://www.parkrun.org.uk/bestwoodvillage
Bethlehem parkrun,-28.251308,28.336215,South Africa,Orange Free State,Thabo Mofutsanyana District Municipality,https://www.parkrun.co.za/bethlehem
Bethlem Royal Hospital parkrun,51.385332,-0.029969,United Kingdom,England,Greater London,https://www.parkrun.org.uk/bethlemroyalhospital
Betty’s Bay parkrun,-34.351851,18.926615,South Africa,Western Cape,Overberg District Municipality,https://www.parkrun.co.za/bettysbay
Bevendean Down parkrun,50.844709,-0.107027,United Kingdom,England,Brighton and Hove,https://www.parkrun.org.uk/bevendeandown
Beverley Westwood parkrun,53.840255,-0.440675,United Kingdom,England,East Yorkshire,https://www.parkrun.org.uk/beverleywestwood
Bexley parkrun,51.455132,0.113254,United Kingdom,England,Greater London,https://www.parkrun.org.uk/bexley
Bezuidenhout parkrun,-26.180165,28.089316,South Africa,Gauteng,City of Johannesburg Metropolitan Municipality,https://www.parkrun.co.za/bezuidenhout
Bibra Lake parkrun,-32.093955,115.820636,Australia,Western Australia,City of Cockburn,https://www.parkrun.com.au/bibralake
Bicester parkrun,51.891101,-1.146866,United Kingdom,England,Oxfordshire,https://www.parkrun.org.uk/bicester
Bideford parkrun,51.024075,-4.204316,United Kingdom,England,Devon,https://www.parkrun.org.uk/bideford
Big Bay parkrun,-33.792113,18.456388,South Africa,Western Cape,City of Cape Town,https://www.parkrun.co.za/bigbay
Bill Rose Sports Complex parkrun,-32.054009,150.856114,Australia,New South Wales,Upper Hunter Shire,https://www.parkrun.com.au/billrosesportscomplex
Bill Thorpe Walking Bridge parkrun,45.966319,-66.649023,Canada,New Brunswick,York County,https://www.parkrun.ca/billthorpewalkingbridge
Billdalsparken parkrun,57.582383,11.943555,Sweden,Västra Götaland,Gothenburg Municipality,https://www.parkrun.se/billdalsparken
Billericay parkrun,51.632966,0.417446,United Kingdom,England,Essex,https://www.parkrun.org.uk/billericay
Birdsland Reserve parkrun,-37.923408,145.335724,Australia,Victoria,Yarra Ranges,https://www.parkrun.com.au/birdslandreserve
Birkenhead parkrun,53.394807,-3.051658,United Kingdom,England,Wirral,https://www.parkrun.org.uk/birkenhead
Bishan parkrun,1.360729,103.850291,Singapore,,,https://www.parkrun.sg/bishan
Black Park parkrun,51.540329,-0.5476,United Kingdom,England,Buckinghamshire,https://www.parkrun.org.uk/blackpark
Blackbutt parkrun,-32.932526,151.699755,Australia,New South Wales,Newcastle,https://www.parkrun.com.au/blackbutt
Blackhill parkrun,54.858315,-1.842366,United Kingdom,England,Durham,https://www.parkrun.org.uk/blackhill
Blackpool parkrun,53.811727,-3.023114,United Kingdom,England,Blackpool,https://www.parkrun.org.uk/blackpool
Blandford parkrun,50.863122,-2.16627,United Kingdom,England,Dorset,https://www.parkrun.org.uk/blandford
Blenheim parkrun,-41.511842,173.95879,New Zealand,Marlborough,Marlborough District,https://www.parkrun.co.nz/blenheim
Blickling parkrun,52.813653,1.221671,United Kingdom,England,Norfolk,https://www.parkrun.org.uk/blickling
Blue Gum Hills parkrun,-32.884131,151.620206,Australia,New South Wales,Newcastle,https://www.parkrun.com.au/bluegumhills
Blue Lagoon parkrun,-29.811223,31.03348,South Africa,KwaZulu-Natal,eThekwini Metropolitan Municipality,https://www.parkrun.co.za/bluelagoon
Blyth Links parkrun,55.106922,-1.499456,United Kingdom,England,Northumberland,https://www.parkrun.org.uk/blythlinks
Bognor Regis parkrun,50.786913,-0.668305,United Kingdom,England,West Sussex,https://www.parkrun.org.uk/bognorregis
Boksburg parkrun,-26.235059,28.275415,South Africa,Gauteng,Ekurhuleni Metropolitan Municipality,https://www.parkrun.co.za/boksburg
Bolberry Down parkrun,50.23197,-3.842329,United Kingdom,England,Devon,https://www.parkrun.org.uk/bolberrydown
Bolton parkrun,53.574715,-2.395615,United Kingdom,England,Bolton,https://www.parkrun.org.uk/bolton
Borrisokane Town parkrun,52.998198,-8.132919,Ireland,Munster,Tipperary,https://www.parkrun.ie/borrisokanetown
Bosmont Stadium parkrun,-26.194801,27.954446,South Africa,Gauteng,City of Johannesburg Metropolitan Municipality,https://www.parkrun.co.za/bosmontstadium
Boston parkrun,52.990156,-0.038556,United Kingdom,England,Lincolnshire,https://www.parkrun.org.uk/boston
Botanical Garden parkrun,-25.738299,28.273752,South Africa,Gauteng,City of Tshwane Metropolitan Municipality,https://www.parkrun.co.za/botanicalgarden
Bourke Racecourse parkrun,-30.09756,145.92572,Australia,New South Wales,Bourke,https://www.parkrun.com.au/bourkeracecourse
Bournemouth parkrun,50.73362,-1.832732,United Kingdom,England,"Bournemouth, Christchurch and Poole Council",https://www.parkrun.org.uk/bournemouth
Bowen parkrun,-19.985467,148.257052,Australia,Queensland,Whitsunday,https://www.parkrun.com.au/bowen
Bower Park parkrun,54.761523,-3.331244,United Kingdom,England,Cumbria,https://www.parkrun.org.uk/bowerpark
Bowling Park parkrun,53.778303,-1.739889,United Kingdom,England,Bradford,https://www.parkrun.org.uk/bowlingpark
Brabrand parkrun,56.165699,10.141282,Denmark,Central Jutland,Aarhus Kommune,https://www.parkrun.dk/brabrand
Bracknell parkrun,51.390248,-0.776844,United Kingdom,England,Bracknell Forest,https://www.parkrun.org.uk/bracknell
Bradford parkrun,53.814575,-1.775102,United Kingdom,England,Bradford,https://www.parkrun.org.uk/bradford
Braidwood Showground parkrun,-35.422759,149.791222,Australia,New South Wales,Queanbeyan-Palerang Regional,https://www.parkrun.com.au/braidwoodshowground
Brakpan parkrun,-26.228901,28.370649,South Africa,Gauteng,Ekurhuleni Metropolitan Municipality,https://www.parkrun.co.za/brakpan
Bramhall parkrun,53.374268,-2.160702,United Kingdom,England,Stockport,https://www.parkrun.org.uk/bramhall
Bramley parkrun,53.813432,-1.633461,United Kingdom,England,Leeds,https://www.parkrun.org.uk/bramley
Bramshall Road parkrun,52.895262,-1.871048,United Kingdom,England,Staffordshire,https://www.parkrun.org.uk/bramshallroad
Brandkop parkrun,-29.145325,26.168249,South Africa,Orange Free State,Mangaung Metropolitan Municipality,https://www.parkrun.co.za/brandkop
Brandon Country Park parkrun,52.436339,0.625877,United Kingdom,England,Suffolk,https://www.parkrun.org.uk/brandoncountrypark
Brauhaus Afrika parkrun,-25.802846,27.244251,South Africa,North-West,Bojanala Platinum,https://www.parkrun.co.za/brauhausafrika
Braunstone parkrun,52.626129,-1.178681,United Kingdom,England,Leicester,https://www.parkrun.org.uk/braunstone
Breakwater parkrun,44.222662,-76.495865,Canada,Ontario,Frontenac County,https://www.parkrun.ca/breakwater
Brecksville Reservation parkrun,41.319835,-81.616018,USA,Ohio,Cuyahoga,https://www.parkrun.us/brecksvillereservation
Bredasdorp parkrun,-34.533186,20.028241,South Africa,Western Cape,Overberg District Municipality,https://www.parkrun.co.za/bredasdorp
Breede Valley parkrun,-33.631633,19.436541,South Africa,Western Cape,Cape Winelands District Municipality,https://www.parkrun.co.za/breedevalley
Brentwood parkrun,51.622582,0.266879,United Kingdom,England,Essex,https://www.parkrun.org.uk/brentwood
Bressay parkrun,60.158081,-1.119683,United Kingdom,Scotland,Shetland Islands,https://www.parkrun.org.uk/bressay
Brickfields parkrun,53.331707,-6.310669,Ireland,Leinster,Dublin,https://www.parkrun.ie/brickfields
Bridgetown parkrun,-33.960435,18.526226,South Africa,Western Cape,City of Cape Town,https://www.parkrun.co.za/bridgetown
Brierley Forest parkrun,53.131155,-1.295214,United Kingdom,England,Nottinghamshire,https://www.parkrun.org.uk/brierleyforest
Brighouse parkrun,53.706086,-1.778156,United Kingdom,England,Calderdale,https://www.parkrun.org.uk/brighouse
Bright parkrun,-36.743803,146.978,Australia,Victoria,Alpine,https://www.parkrun.com.au/bright
Brighton & Hove parkrun,50.84214,-0.172498,United Kingdom,England,Brighton and Hove,https://www.parkrun.org.uk/brighton
Brightwater parkrun,-26.708909,153.113665,Australia,Queensland,Sunshine Coast,https://www.parkrun.com.au/brightwater
Brimbank parkrun,-37.727547,144.834123,Australia,Victoria,City of Brimbank,https://www.parkrun.com.au/brimbank
Brixworth Country parkrun,52.318576,-0.895675,United Kingdom,England,Northamptonshire,https://www.parkrun.org.uk/brixworthcountry
Broad Park parkrun,-43.483997,172.722052,New Zealand,Canterbury,Christchurch City,https://www.parkrun.co.nz/broadpark
Broadbeach Waters parkrun,-28.018497,153.412292,Australia,Queensland,Gold Coast,https://www.parkrun.com.au/broadbeachwaters
Broadwater parkrun,51.197911,-0.598312,United Kingdom,England,Surrey,https://www.parkrun.org.uk/broadwater
Brockenhurst parkrun,50.808304,-1.642326,United Kingdom,England,Hampshire,https://www.parkrun.org.uk/brockenhurst
"Brockwell parkrun, Herne Hill",51.452538,-0.105464,United Kingdom,England,Greater London,https://www.parkrun.org.uk/brockwell
Broken Hill Racecourse parkrun,-31.911528,141.483931,Australia,New South Wales,Broken Hill Municipality,https://www.parkrun.com.au/brokenhillracecourse
Bromley parkrun,51.386539,0.022874,United Kingdom,England,Greater London,https://www.parkrun.org.uk/bromley
Bronberrik parkrun,-25.853883,28.171663,South Africa,Gauteng,City of Tshwane Metropolitan Municipality,https://www.parkrun.co.za/bronberrik
Bronkhorstspruit parkrun,-25.859367,28.699269,South Africa,Gauteng,City of Tshwane Metropolitan Municipality,https://www.parkrun.co.za/bronkhorstspruit
Brooklands parkrun,51.346969,-0.471408,United Kingdom,England,Surrey,https://www.parkrun.org.uk/brooklands
Broparken parkrun,63.826124,20.249958,Sweden,Västerbotten,Umeå Kommun,https://www.parkrun.se/broparken
Brueton parkrun,52.406754,-1.764593,United Kingdom,England,Solihull,https://www.parkrun.org.uk/brueton
Brundall parkrun,52.624133,1.417369,United Kingdom,England,Norfolk,https://www.parkrun.org.uk/brundall
Bryanston parkrun,-26.060239,28.04727,South Africa,Gauteng,City of Johannesburg Metropolitan Municipality,https://www.parkrun.co.za/bryanston
Bryn Bach parkrun,51.781621,-3.269548,United Kingdom,Wales,Blaenau Gwent,https://www.parkrun.org.uk/brynbach
Brynaman parkrun,51.808402,-3.869719,United Kingdom,Wales,Neath Port Talbot,https://www.parkrun.org.uk/brynaman
Buckingham parkrun,51.998987,-0.984462,United Kingdom,England,Buckinghamshire,https://www.parkrun.org.uk/buckingham
"Bugasee parkrun, Kassel",51.292225,9.504789,Germany,Hesse,Regierungsbezirk Kassel,https://www.parkrun.com.de/bugasee
Bunbury parkrun,-33.342966,115.633228,Australia,Western Australia,Bunbury,https://www.parkrun.com.au/bunbury
Buncrana parkrun,55.132338,-7.462667,Ireland,Ulster,Donegal,https://www.parkrun.ie/buncrana
Bundaberg parkrun,-24.86835,152.330781,Australia,Queensland,Bundaberg,https://www.parkrun.com.au/bundaberg
Bunyaville parkrun,-27.377306,152.949138,Australia,Queensland,Moreton Bay,https://www.parkrun.com.au/bunyaville
Burgess parkrun,51.484536,-0.081024,United Kingdom,England,Greater London,https://www.parkrun.org.uk/burgess
Burley Griffin parkrun,-35.292148,149.088585,Australia,Australian Capital Territory,,https://www.parkrun.com.au/burleygriffin
Burnage parkrun,53.407152,-2.209185,United Kingdom,England,Stockport,https://www.parkrun.org.uk/burnage
Burnham and Highbridge parkrun,51.226679,-2.990243,United Kingdom,England,Somerset,https://www.parkrun.org.uk/burnhamandhighbridge
Burnham-on-Crouch parkrun,51.627409,0.810923,United Kingdom,England,Essex,https://www.parkrun.org.uk/burnhamoncrouch
Burnie parkrun,-41.049194,145.905,Australia,Tasmania,Burnie,https://www.parkrun.com.au/burnie
Burnley parkrun,53.77834,-2.221555,United Kingdom,England,Lancashire,https://www.parkrun.org.uk/burnley
Burswood Peninsula parkrun,-31.95306,115.887561,Australia,Western Australia,Victoria Park,https://www.parkrun.com.au/burswoodpeninsula
Bury Field parkrun,52.088015,-0.728725,United Kingdom,England,Milton Keynes,https://www.parkrun.org.uk/buryfield
Bury St Edmunds parkrun,52.224887,0.730183,United Kingdom,England,Suffolk,https://www.parkrun.org.uk/burystedmunds
Bushy parkrun,51.410992,-0.335791,United Kingdom,England,Greater London,https://www.parkrun.org.uk/bushy
"Bushy parkrun, Dublin",53.298951,-6.296455,Ireland,Leinster,Dublin,https://www.parkrun.ie/bushydublin
Byxbee parkrun,37.451055,-122.105993,USA,California,Santa Clara,https://www.parkrun.us/byxbee
Cabinteely parkrun,53.26137,-6.158811,Ireland,Leinster,Dublin,https://www.parkrun.ie/cabinteely
Caffarella parkrun,41.866851,12.524093,Italy,Latium,Rome,https://www.parkrun.it/caffarella
Cairns parkrun,-16.904574,145.763211,Australia,Queensland,Cairns,https://www.parkrun.com.au/cairns
Calamvale parkrun,-27.620775,153.039287,Australia,Queensland,Brisbane,https://www.parkrun.com.au/calamvale
California Country parkrun,51.379583,-0.867647,United Kingdom,England,Wokingham,https://www.parkrun.org.uk/californiacountry
Calleya parkrun,-32.126604,115.876176,Australia,Western Australia,City of Cockburn,https://www.parkrun.com.au/calleya
Cambridge NZ parkrun,-37.890281,175.435891,New Zealand,Waikato,Waipa District,https://www.parkrun.co.nz/cambridgenz
Campaspe parkrun,-37.354683,144.531445,Australia,Victoria,Macedon Ranges,https://www.parkrun.com.au/campaspe
Campbelltown parkrun,-34.018301,150.814819,Australia,New South Wales,Campbelltown Municipality,https://www.parkrun.com.au/campbelltown
"Camperdown parkrun, Dundee",56.483681,-3.030896,United Kingdom,Scotland,Dundee City,https://www.parkrun.org.uk/camperdown
Cannibals Cave parkrun,-28.682918,28.976784,South Africa,KwaZulu-Natal,uThukela District Municipality,https://www.parkrun.co.za/cannibalscave
Canning River parkrun,-32.020912,115.92266,Australia,Western Australia,City of Canning,https://www.parkrun.com.au/canningriver
Cannock Chase parkrun,52.73744,-1.99542,United Kingdom,England,Staffordshire,https://www.parkrun.org.uk/cannockchase
"Cannon Hill parkrun, Birmingham",52.452637,-1.89997,United Kingdom,England,Birmingham,https://www.parkrun.org.uk/cannonhill
Canons Park parkrun,51.612291,-0.296184,United Kingdom,England,Greater London,https://www.parkrun.org.uk/canonspark
Canterbury parkrun,51.299468,1.057002,United Kingdom,England,Kent,https://www.parkrun.org.uk/canterbury
Canyon Rim Trail parkrun,42.598602,-114.454267,USA,Idaho,Twin Falls,https://www.parkrun.us/canyonrimtrail
Capalaba parkrun,-27.521405,153.186858,Australia,Queensland,Redland,https://www.parkrun.com.au/capalaba
Cape Pembroke Lighthouse parkrun,-51.683211,-57.757716,United Kingdom,Falkland Islands,,https://www.parkrun.org.uk/capepembrokelighthouse
Cardiff parkrun,51.49736,-3.207107,United Kingdom,Wales,Cardiff,https://www.parkrun.org.uk/cardiff
Cardwell parkrun,-18.263036,146.025909,Australia,Queensland,Cassowary Coast,https://www.parkrun.com.au/cardwell
Carine Glades parkrun,-31.85155,115.782943,Australia,Western Australia,Stirling,https://www.parkrun.com.au/carineglades
Carisbrooke parkrun,-34.754627,138.677757,Australia,South Australia,Salisbury,https://www.parkrun.com.au/carisbrooke
"Carlisle Park parkrun, Morpeth",55.165172,-1.691159,United Kingdom,England,Northumberland,https://www.parkrun.org.uk/carlislepark
Carlisle parkrun,54.886025,-2.963455,United Kingdom,England,Cumbria,https://www.parkrun.org.uk/carlisle
Carlow Town parkrun,52.838536,-6.93414,Ireland,Leinster,Carlow,https://www.parkrun.ie/carlowtown
Carnival City parkrun,-26.257116,28.312658,South Africa,Gauteng,Ekurhuleni Metropolitan Municipality,https://www.parkrun.co.za/carnivalcity
Carrickfergus parkrun,54.719992,-5.805285,United Kingdom,Northern Ireland,Antrim,https://www.parkrun.org.uk/carrickfergus
Cascades on Clyde Wetlands parkrun,-38.100383,145.325835,Australia,Victoria,Casey,https://www.parkrun.com.au/cascadesonclydewetlands
Cassiobury parkrun,51.657677,-0.406335,United Kingdom,England,Hertfordshire,https://www.parkrun.org.uk/cassiobury
Castle Park parkrun,51.87167,0.164165,United Kingdom,England,Hertfordshire,https://www.parkrun.org.uk/castlepark
Castlebar parkrun,53.850327,-9.309314,Ireland,Connacht,Mayo,https://www.parkrun.ie/castlebar
Castleblayney parkrun,54.1219,-6.728947,Ireland,Ulster,Monaghan,https://www.parkrun.ie/castleblayney
Castlehaven parkrun,51.551575,-9.170294,Ireland,Munster,Cork,https://www.parkrun.ie/castlehaven
Castlemaine parkrun,-37.050794,144.217649,Australia,Victoria,Mount Alexander,https://www.parkrun.com.au/castlemaine
Castlerea parkrun,53.767763,-8.480996,Ireland,Connacht,Roscommon,https://www.parkrun.ie/castlerea
Castletown parkrun,53.348946,-6.528707,Ireland,Leinster,Kildare,https://www.parkrun.ie/castletown
Castlewellan parkrun,54.262147,-5.95386,United Kingdom,Northern Ireland,Down,https://www.parkrun.org.uk/castlewellan
Casula Parklands parkrun,-33.948703,150.91369,Australia,New South Wales,Liverpool,https://www.parkrun.com.au/casulaparklands
Catford parkrun,51.44824,-0.00863,United Kingdom,England,Greater London,https://www.parkrun.org.uk/catford
Catton parkrun,52.656696,1.295507,United Kingdom,England,Norfolk,https://www.parkrun.org.uk/catton
Centenary parkrun,-22.81841,147.642912,Australia,Queensland,Isaac,https://www.parkrun.com.au/centenary
Centennial parkrun,-33.898808,151.228564,Australia,New South Wales,Randwick,https://www.parkrun.com.au/centennial
Central Lakes parkrun,-27.07755,152.973187,Australia,Queensland,Moreton Bay,https://www.parkrun.com.au/centrallakes
"Central parkrun, Burnaby",49.229288,-123.012837,Canada,British Columbia,Metro Vancouver Regional District,https://www.parkrun.ca/centralburnaby
"Central parkrun, Plymouth",50.385099,-4.151031,United Kingdom,England,Plymouth,https://www.parkrun.org.uk/centralplymouth
Centre Vale parkrun,53.718272,-2.102438,United Kingdom,England,Calderdale,https://www.parkrun.org.uk/centrevale
Century City parkrun,-33.897206,18.506641,South Africa,Western Cape,City of Cape Town,https://www.parkrun.co.za/centurycity
Ceres parkrun,-33.372267,19.300197,South Africa,Western Cape,Cape Winelands District Municipality,https://www.parkrun.co.za/ceres
Chadderton Hall parkrun,53.554066,-2.158552,United Kingdom,England,Oldham,https://www.parkrun.org.uk/chaddertonhall
Chaffey Park parkrun,-30.743124,150.73018,Australia,New South Wales,Tamworth Municipality,https://www.parkrun.com.au/chaffeypark
Chain of Lakes parkrun,44.639531,-63.661271,Canada,Nova Scotia,Halifax Regional Municipality,https://www.parkrun.ca/chainoflakes
Chalkwell Beach parkrun,51.536925,0.676231,United Kingdom,England,Southend-on-Sea,https://www.parkrun.org.uk/chalkwellbeach
Champion Lakes parkrun,-32.106314,115.999535,Australia,Western Australia,City of Armadale,https://www.parkrun.com.au/championlakes
"Charleston parkrun, South Australia",-34.916841,138.903161,Australia,South Australia,Adelaide Hills,https://www.parkrun.com.au/charlestonsouthaustralia
"Charleston parkrun, West Virginia",38.350322,-81.639331,USA,West Virginia,Kanawha,https://www.parkrun.us/charleston
Charleys Creek parkrun,-26.736553,150.623683,Australia,Queensland,Western Downs,https://www.parkrun.com.au/charleyscreek
Charlton parkrun,51.480751,0.041628,United Kingdom,England,Greater London,https://www.parkrun.org.uk/charlton
Charters Towers Airport parkrun,-20.044688,146.273413,Australia,Queensland,Charters Towers,https://www.parkrun.com.au/charterstowersairport
Chasewater parkrun,52.661987,-1.944407,United Kingdom,England,Staffordshire,https://www.parkrun.org.uk/chasewater
Cheadle Hulme parkrun,53.379026,-2.210652,United Kingdom,England,Stockport,https://www.parkrun.org.uk/cheadlehulme
Chelmsford Central parkrun,51.732577,0.464945,United Kingdom,England,Essex,https://www.parkrun.org.uk/chelmsfordcentral
Chelsea Bicentennial parkrun,-38.049247,145.12656,Australia,Victoria,Kingston,https://www.parkrun.com.au/chelseabicentennial
Cheltenham parkrun,51.911754,-2.07824,United Kingdom,England,Gloucestershire,https://www.parkrun.org.uk/cheltenham
Chermside parkrun,-27.37896,153.033507,Australia,Queensland,Brisbane,https://www.parkrun.com.au/chermside
Chester parkrun,53.207796,-2.902368,United Kingdom,England,Cheshire,https://www.parkrun.org.uk/chester
Chevin Forest parkrun,53.894133,-1.665858,United Kingdom,England,Leeds,https://www.parkrun.org.uk/chevinforest
Chichester parkrun,50.846182,-0.777535,United Kingdom,England,West Sussex,https://www.parkrun.org.uk/chichester
Chilton Fields parkrun,52.197076,0.975934,United Kingdom,England,Suffolk,https://www.parkrun.org.uk/chiltonfields
Chippenham parkrun,51.460469,-2.113119,United Kingdom,England,Wiltshire,https://www.parkrun.org.uk/chippenham
"Chippenham Playing Fields parkrun, Monmouth",51.80783,-2.718161,United Kingdom,Wales,Monmouthshire,https://www.parkrun.org.uk/chippenhamplayingfields
Chipping Norton parkrun,-33.909244,150.964108,Australia,New South Wales,Liverpool,https://www.parkrun.com.au/chippingnorton
Chipping Norton School parkrun,51.93812,-1.54029,United Kingdom,England,Oxfordshire,https://www.parkrun.org.uk/chippingnortonschool
Chipping Sodbury parkrun,51.544366,-2.397165,United Kingdom,England,South Gloucestershire,https://www.parkrun.org.uk/chippingsodbury
Chopwell Wood parkrun,54.922026,-1.790884,United Kingdom,England,Gateshead,https://www.parkrun.org.uk/chopwellwood
Christiana parkrun,-27.898445,25.151031,South Africa,North-West,Dr Ruth Segomotsi Mompati District Municipality,https://www.parkrun.co.za/christiana
Christies Beach parkrun,-35.135628,138.46916,Australia,South Australia,Onkaparinga,https://www.parkrun.com.au/christiesbeach
Chuo koen parkrun,39.692853,141.125657,Japan,Iwate,Morioka-shi,https://www.parkrun.jp/chuokoen
Church Mead parkrun,51.667191,-0.614472,United Kingdom,England,Buckinghamshire,https://www.parkrun.org.uk/churchmead
Churchill parkrun,-38.312871,146.422465,Australia,Victoria,Latrobe,https://www.parkrun.com.au/churchill
Churchill Parkway parkrun,49.866258,-97.114076,Canada,Manitoba,,https://www.parkrun.ca/churchillparkway
Cirencester parkrun,51.711207,-1.99109,United Kingdom,England,Gloucestershire,https://www.parkrun.org.uk/cirencester
"City Park parkrun, Iowa",41.67568,-91.534945,USA,Iowa,Johnson,https://www.parkrun.us/cityparkiowa
"Citypark parkrun, Craigavon",54.451093,-6.386002,United Kingdom,Northern Ireland,Armagh,https://www.parkrun.org.uk/citypark
Clacton Seafront parkrun,51.781574,1.142974,United Kingdom,England,Essex,https://www.parkrun.org.uk/clactonseafront
Clair parkrun,51.004322,-0.100143,United Kingdom,England,West Sussex,https://www.parkrun.org.uk/clair
Claisebrook Cove parkrun,-31.950868,115.881884,Australia,Western Australia,City of Perth,https://www.parkrun.com.au/claisebrookcove
Clapham Common parkrun,51.455873,-0.151331,United Kingdom,England,Greater London,https://www.parkrun.org.uk/claphamcommon
Clare Castle parkrun,52.076428,0.581882,United Kingdom,England,Suffolk,https://www.parkrun.org.uk/clarecastle
Clare Valley parkrun,-33.866335,138.625011,Australia,South Australia,Clare and Gilbert Valleys,https://www.parkrun.com.au/clarevalley
Claremorris parkrun,53.712598,-8.997864,Ireland,Connacht,Mayo,https://www.parkrun.ie/claremorris
Clarens parkrun,-28.514776,28.419728,South Africa,Orange Free State,Thabo Mofutsanyana District Municipality,https://www.parkrun.co.za/clarens
Clarisford parkrun,52.796642,-8.441796,Ireland,Munster,Clare,https://www.parkrun.ie/clarisford
Cleethorpes parkrun,53.541552,-0.025384,United Kingdom,England,North East Lincolnshire,https://www.parkrun.org.uk/cleethorpes
Cleland parkrun,-34.964185,138.698602,Australia,South Australia,Adelaide Hills,https://www.parkrun.com.au/cleland
Clermont Waterfront parkrun,28.557404,-81.770446,USA,Florida,Lake,https://www.parkrun.us/clermontwaterfront
Clevedon Salthouse Fields parkrun,51.434573,-2.866505,United Kingdom,England,North Somerset,https://www.parkrun.org.uk/clevedonsalthousefields
Cleveland parkrun,-27.539355,153.274298,Australia,Queensland,Redland,https://www.parkrun.com.au/cleveland
Cliffe Castle parkrun,53.874658,-1.913364,United Kingdom,England,Bradford,https://www.parkrun.org.uk/cliffecastle
Clifton parkrun,52.907144,-1.163033,United Kingdom,England,Nottingham,https://www.parkrun.org.uk/clifton
Clitheroe Castle parkrun,53.870346,-2.39478,United Kingdom,England,Lancashire,https://www.parkrun.org.uk/clitheroecastle
Clonakilty parkrun,51.617636,-8.89884,Ireland,Munster,Cork,https://www.parkrun.ie/clonakilty
Clonbur Woods parkrun,53.547406,-9.361828,Ireland,Connacht,Galway,https://www.parkrun.ie/clonburwoods
Cloncurry parkrun,-20.70873,140.519814,Australia,Queensland,Cloncurry,https://www.parkrun.com.au/cloncurry
Clonmel parkrun,52.352179,-7.694956,Ireland,Munster,Tipperary,https://www.parkrun.ie/clonmel
Clover Point parkrun,48.40457,-123.350007,Canada,British Columbia,Capital Regional District,https://www.parkrun.ca/cloverpoint
Clumber Park parkrun,53.268022,-1.065717,United Kingdom,England,Nottinghamshire,https://www.parkrun.org.uk/clumberpark
Cobar parkrun,-31.509832,145.831405,Australia,New South Wales,Cobar,https://www.parkrun.com.au/cobar
Cobram parkrun,-35.913461,145.668554,Australia,Victoria,Moira,https://www.parkrun.com.au/cobram
Coburg parkrun,-37.733811,144.968861,Australia,Victoria,Moreland,https://www.parkrun.com.au/coburg
Coed Cefn-pwll-du parkrun,51.591855,-3.140954,United Kingdom,Wales,Caerphilly,https://www.parkrun.org.uk/coedcefnpwlldu
Coffs Harbour parkrun,-30.295687,153.1376,Australia,New South Wales,Coffs Harbour,https://www.parkrun.com.au/coffsharbour
Cohuna parkrun,-35.809232,144.223054,Australia,Victoria,Gannawarra,https://www.parkrun.com.au/cohuna
Colby parkrun,51.74064,-4.669924,United Kingdom,Wales,Pembrokeshire,https://www.parkrun.org.uk/colby
Colchester Castle parkrun,51.89167,0.902724,United Kingdom,England,Essex,https://www.parkrun.org.uk/colchestercastle
Coldham’s Common parkrun,52.206705,0.158881,United Kingdom,England,Cambridgeshire,https://www.parkrun.org.uk/coldhamscommon
Coler Mountain Bike Preserve parkrun,36.38723,-94.238106,USA,Arkansas,Benton,https://www.parkrun.us/colermountainbikepreserve
Colin Glen parkrun,54.570723,-6.020504,United Kingdom,Northern Ireland,Belfast,https://www.parkrun.org.uk/colinglen
College Park parkrun,38.999103,-76.932737,USA,Maryland,Prince George's,https://www.parkrun.us/collegepark
Collie River Trail parkrun,-33.357664,116.156872,Australia,Western Australia,Collie,https://www.parkrun.com.au/collierivertrail
Colney Lane parkrun,52.621317,1.22519,United Kingdom,England,Norfolk,https://www.parkrun.org.uk/colneylane
Colwick parkrun,52.945171,-1.09786,United Kingdom,England,Nottingham,https://www.parkrun.org.uk/colwick
Comber parkrun,54.549593,-5.740415,United Kingdom,Northern Ireland,Down,https://www.parkrun.org.uk/comber
Con Smith parkrun,54.00096,-7.356701,Ireland,Ulster,Cavank,https://www.parkrun.ie/consmith
"Concord parkrun, Sheffield",53.424007,-1.441612,United Kingdom,England,Sheffield,https://www.parkrun.org.uk/concord
Congleton parkrun,53.160781,-2.229795,United Kingdom,England,Cheshire East,https://www.parkrun.org.uk/congleton
Conkers parkrun,52.739475,-1.543021,United Kingdom,England,Leicestershire,https://www.parkrun.org.uk/conkers
Constantia Greenbelt parkrun,-34.008575,18.440688,South Africa,Western Cape,City of Cape Town,https://www.parkrun.co.za/constantiagreenbelt
Conwy parkrun,53.279388,-3.808966,United Kingdom,Wales,Conwy,https://www.parkrun.org.uk/conwy
Conyngham Hall parkrun,54.011758,-1.479507,United Kingdom,England,North Yorkshire,https://www.parkrun.org.uk/conynghamhall
Coober Pedy Oval parkrun,-29.018468,134.754566,Australia,South Australia,Coober Pedy,https://www.parkrun.com.au/cooberpedyoval
Cooks River parkrun,-33.913708,151.116857,Australia,New South Wales,Canterbury-Bankstown,https://www.parkrun.com.au/cooksriver
Coole parkrun,53.093422,-8.838605,Ireland,Connacht,Galway,https://www.parkrun.ie/coole
Coombs parkrun,-35.326215,149.047518,Australia,Australian Capital Territory,,https://www.parkrun.com.au/coombs
Coomera parkrun,-27.885247,153.281709,Australia,Queensland,Gold Coast,https://www.parkrun.com.au/coomera
Cootehill parkrun,54.081471,-7.086978,Ireland,Ulster,Cavan,https://www.parkrun.ie/cootehill
Copper Trail parkrun,-33.95397,137.667378,Australia,South Australia,Copper Coast,https://www.parkrun.com.au/coppertrail
Corby parkrun,52.493879,-0.691774,United Kingdom,England,Northamptonshire,https://www.parkrun.org.uk/corby
Corkagh parkrun,53.315227,-6.410276,Ireland,Leinster,Dublin,https://www.parkrun.ie/corkagh
Cormorant Bay parkrun,-27.401736,152.622246,Australia,Queensland,Somerset,https://www.parkrun.com.au/cormorantbay
Cornwall parkrun,-36.895495,174.789414,New Zealand,Auckland,Auckland,https://www.parkrun.co.nz/cornwall
Cosmeston Lakes parkrun,51.418047,-3.185615,United Kingdom,Wales,Vale of Glamorgan,https://www.parkrun.org.uk/cosmestonlakes
Cotsford Fields parkrun,54.759499,-1.30077,United Kingdom,England,Durham,https://www.parkrun.org.uk/cotsfordfields
Cottesloe parkrun,-32.006479,115.75182,Australia,Western Australia,Cottesloe,https://www.parkrun.com.au/cottesloe
Courthouse Lake parkrun,44.786109,-93.592878,USA,Minnesota,Carver,https://www.parkrun.us/courthouselake
Coventry parkrun,52.39172,-1.524026,United Kingdom,England,Coventry,https://www.parkrun.org.uk/coventry
"Cowpasture Reserve parkrun, Camden",-34.053665,150.700727,Australia,New South Wales,Camden Council,https://www.parkrun.com.au/cowpasturereservecamden
Cowra parkrun,-33.812714,148.703733,Australia,New South Wales,Cowra,https://www.parkrun.com.au/cowra
Cranbrook Country Park parkrun,50.750746,-3.417858,United Kingdom,England,Devon,https://www.parkrun.org.uk/cranbrookcountrypark
Crane Park parkrun,51.441168,-0.372075,United Kingdom,England,Greater London,https://www.parkrun.org.uk/crane
Cranleigh parkrun,51.13819,-0.49151,United Kingdom,England,Surrey,https://www.parkrun.org.uk/cranleigh
Crathes Castle parkrun,57.061178,-2.440954,United Kingdom,Scotland,Aberdeenshire,https://www.parkrun.org.uk/crathescastle
Crawfordsburn Country parkrun,54.666682,-5.729434,United Kingdom,Northern Ireland,Down,https://www.parkrun.org.uk/crawfordsburncountry
Creekside parkrun,35.891735,-79.934662,USA,North Carolina,Randolph,https://www.parkrun.us/creekside
Crewe parkrun,53.097388,-2.470556,United Kingdom,England,Cheshire East,https://www.parkrun.org.uk/crewe
Crichton parkrun,55.050773,-3.594589,United Kingdom,Scotland,Dumfries and Galloway,https://www.parkrun.org.uk/crichton
Cronulla parkrun,-34.040937,151.161836,Australia,New South Wales,Sutherland Shire,https://www.parkrun.com.au/cronulla
Crosby parkrun,53.48269,-3.046711,United Kingdom,England,Sefton,https://www.parkrun.org.uk/crosby
Cross Flatts parkrun,53.775754,-1.55757,United Kingdom,England,Leeds,https://www.parkrun.org.uk/crossflatts
Croxteth Hall parkrun,53.44217,-2.891774,United Kingdom,England,Liverpool,https://www.parkrun.org.uk/croxtethhall
Crystal Palace parkrun,51.419846,-0.065703,United Kingdom,England,Greater London,https://www.parkrun.org.uk/crystalpalace
Curl Curl parkrun,-33.766483,151.282339,Australia,New South Wales,Northern Beaches,https://www.parkrun.com.au/curlcurl
Cusworth Hall parkrun,53.529479,-1.177617,United Kingdom,England,Doncaster,https://www.parkrun.org.uk/cusworthhall
Cwmbran parkrun,51.656234,-3.013498,United Kingdom,Wales,Torfaen County Borough,https://www.parkrun.org.uk/cwmbran
Cyclopark parkrun,51.419922,0.352561,United Kingdom,England,Kent,https://www.parkrun.org.uk/cyclopark
Cyril Curtain Reserve parkrun,-37.872231,144.902847,Australia,Victoria,Hobsons Bay,https://www.parkrun.com.au/cyrilcurtainreserve
Dalby Forest parkrun,54.273821,-0.686599,United Kingdom,England,North Yorkshire,https://www.parkrun.org.uk/dalbyforest
Dalby parkrun,-27.188036,151.262339,Australia,Queensland,Western Downs,https://www.parkrun.com.au/dalby
Dallas Burston Polo Club parkrun,52.25721,-1.417387,United Kingdom,England,Warwickshire,https://www.parkrun.org.uk/dallasburstonpoloclub
Damhusengen parkrun,55.681924,12.471907,Denmark,Capital Region,Copenhagen,https://www.parkrun.dk/damhusengen
Dandenong parkrun,-37.991139,145.215644,Australia,Victoria,Greater Dandenong,https://www.parkrun.com.au/dandenong
Danehy Park parkrun,42.389507,-71.137528,USA,Massachusetts,Middlesex,https://www.parkrun.us/danehypark
Darebin parkrun,-37.721239,145.034293,Australia,Victoria,Darebin,https://www.parkrun.com.au/darebin
Darlington South Park parkrun,54.51484,-1.560531,United Kingdom,England,Darlington,https://www.parkrun.org.uk/darlingtonsouthpark
Darndale parkrun,53.402785,-6.18863,Ireland,Leinster,Dublin,https://www.parkrun.ie/darndale
Dartford Heath parkrun,51.435932,0.189929,United Kingdom,England,Kent,https://www.parkrun.org.uk/dartfordheath
Dartford parkrun,51.439141,0.220166,United Kingdom,England,Kent,https://www.parkrun.org.uk/dartford
Darwin parkrun,-12.466925,130.840725,Australia,Northern Territory,Darwin,https://www.parkrun.com.au/darwin
Daventry parkrun,52.262374,-1.15732,United Kingdom,England,Northamptonshire,https://www.parkrun.org.uk/daventry
Dawesville parkrun,-32.625918,115.640914,Australia,Western Australia,Mandurah,https://www.parkrun.com.au/dawesville
Dean Castle Country Park parkrun,55.622901,-4.482932,United Kingdom,Scotland,East Ayrshire,https://www.parkrun.org.uk/deancastlecountrypark
Deep Run parkrun,37.624069,-77.586806,USA,Virginia,Henrico,https://www.parkrun.us/deeprun
"Deerpark Forest parkrun, Virginia",53.836235,-7.103269,Ireland,Ulster,Cavan,https://www.parkrun.ie/deerparkforest
"Deerpark parkrun, Carlanstown",53.765863,-6.836092,Ireland,Leinster,Meath,https://www.parkrun.ie/deerparkcarlanstown
Delamere parkrun,53.239537,-2.68796,United Kingdom,England,Cheshire,https://www.parkrun.org.uk/delamere
Delaware and Raritan Canal parkrun,40.509927,-74.575724,USA,New Jersey,Somerset,https://www.parkrun.us/delawareandraritancanal
Delftse Hout parkrun,52.02092,4.373572,Netherlands,South Holland,Delft,https://www.parkrun.co.nl/delftsehout
Delta parkrun,-26.125349,28.009354,South Africa,Gauteng,City of Johannesburg Metropolitan Municipality,https://www.parkrun.co.za/delta
Depot Park parkrun,29.643726,-82.321475,USA,Florida,Alachua,https://www.parkrun.us/depotpark
Derry City parkrun,55.006966,-7.318933,United Kingdom,Northern Ireland,Derry,https://www.parkrun.org.uk/derrycity
Derrynoid Forest parkrun,54.802964,-6.810505,United Kingdom,Northern Ireland,Derry,https://www.parkrun.org.uk/derrynoidforest
Des Moines Creek parkrun,47.40419,-122.329949,USA,Washington,King,https://www.parkrun.us/desmoinescreek
Devonport parkrun,-41.162847,146.356321,Australia,Tasmania,Devonport,https://www.parkrun.com.au/devonport
Dewsbury parkrun,53.688239,-1.646237,United Kingdom,England,Kirklees,https://www.parkrun.org.uk/dewsbury
Diamond Creek parkrun,-37.673576,145.153249,Australia,Victoria,Shire of Nillumbik,https://www.parkrun.com.au/diamondcreek
Didcot parkrun,51.612792,-1.239,United Kingdom,England,Oxfordshire,https://www.parkrun.org.uk/didcot
Dietenbach parkrun,47.999723,7.805913,Germany,Baden-Württemberg,Freiburg Region,https://www.parkrun.com.de/dietenbach
Dinton Pastures parkrun,51.440292,-0.880056,United Kingdom,England,Wokingham,https://www.parkrun.org.uk/dintonpastures
"Dishley parkrun, Loughborough",52.787485,-1.234785,United Kingdom,England,Leicestershire,https://www.parkrun.org.uk/dishleyloughborough
Dodder Valley parkrun,53.27877,-6.35667,Ireland,Leinster,South Dublin,https://www.parkrun.ie/doddervalley
Doddington Hall parkrun,53.222149,-0.650558,United Kingdom,England,Lincolnshire,https://www.parkrun.org.uk/doddingtonhall
Dolgellau parkrun,52.744574,-3.886527,United Kingdom,Wales,Gwynedd,https://www.parkrun.org.uk/dolgellau
Dolls Point parkrun,-33.995775,151.144928,Australia,New South Wales,Rockdale,https://www.parkrun.com.au/dollspoint
Donabate parkrun,53.486227,-6.167897,Ireland,Leinster,Dublin,https://www.parkrun.ie/donabate
Donaupark parkrun,48.240043,16.419671,Austria,Vienna,Vienna,https://www.parkrun.co.at/donaupark
Donauradweg parkrun,48.318131,14.293323,Austria,Upper Austria,Linz Stadt,https://www.parkrun.co.at/donauradweg
Dorset Recreation Reserve parkrun,-37.805244,145.29128,Australia,Victoria,Maroondah,https://www.parkrun.com.au/dorsetrecreationreserve
Downham Market Academy parkrun,52.6034,0.389471,United Kingdom,England,Norfolk,https://www.parkrun.org.uk/downhammarketacademy
Downsview parkrun,43.74385,-79.479977,Canada,Ontario,Toronto,https://www.parkrun.ca/downsview
Dreiländergarten parkrun,47.586611,7.610583,Germany,Baden-Württemberg,Freiburg Region,https://www.parkrun.com.de/dreilaendergarten
Drumblade parkrun,-26.434129,28.005427,South Africa,Gauteng,Sedibeng District Municipality,https://www.parkrun.co.za/drumblade
Drumchapel parkrun,55.91688,-4.350674,United Kingdom,Scotland,Glasgow City,https://www.parkrun.org.uk/drumchapel
Drumpellier Country parkrun,55.871588,-4.065615,United Kingdom,Scotland,North Lanarkshire,https://www.parkrun.org.uk/drumpelliercountry
Druridge Bay parkrun,55.292765,-1.572348,United Kingdom,England,Northumberland,https://www.parkrun.org.uk/druridgebay
Dubbo parkrun,-32.256257,148.591034,Australia,New South Wales,Western Plains Regional,https://www.parkrun.com.au/dubbo
Dudley parkrun,52.490027,-2.134568,United Kingdom,England,Dudley,https://www.parkrun.org.uk/dudley
Duffins Trail parkrun,43.853253,-79.061685,Canada,Ontario,Durham,https://www.parkrun.ca/duffinstrail
"Duikersdrift parkrun, Tulbagh",-33.259059,19.128404,South Africa,Western Cape,Cape Winelands District Municipality,https://www.parkrun.co.za/duikersdrift
Dulwich parkrun,51.443869,-0.079206,United Kingdom,England,Greater London,https://www.parkrun.org.uk/dulwich
Dundalk parkrun,53.984567,-6.386803,Ireland,Leinster,Louth,https://www.parkrun.ie/dundalk
Dunedin parkrun,-45.857088,170.519225,New Zealand,Otago,Dunedin City,https://www.parkrun.co.nz/dunedin
Dunfermline parkrun,56.070684,-3.470694,United Kingdom,Scotland,Fife,https://www.parkrun.org.uk/dunfermline
Dungannon Park parkrun,54.489432,-6.755359,United Kingdom,Northern Ireland,Tyrone,https://www.parkrun.org.uk/dungannonpark
Dungloe parkrun,54.952769,-8.348957,Ireland,Ulster,Donegal,https://www.parkrun.ie/dungloe
Dunleath Playing Fields parkrun,54.323473,-5.718077,United Kingdom,Northern Ireland,Down,https://www.parkrun.org.uk/dunleathplayingfields
Dunstable Downs parkrun,51.865432,-0.537791,United Kingdom,England,Central Bedfordshire,https://www.parkrun.org.uk/dunstabledowns
Durban Point parkrun,-29.864284,31.043293,South Africa,KwaZulu-Natal,eThekwini Metropolitan Municipality,https://www.parkrun.co.za/durbanpoint
Durbanville parkrun,-33.801551,18.621833,South Africa,Western Cape,City of Cape Town,https://www.parkrun.co.za/durbanville
Durham NC parkrun,35.955931,-78.926382,USA,North Carolina,Durham,https://www.parkrun.us/durhamnc
Durham parkrun,54.767605,-1.558852,United Kingdom,England,Durham,https://www.parkrun.org.uk/durham
Durlston Country Park parkrun,50.595211,-1.954023,United Kingdom,England,Dorset,https://www.parkrun.org.uk/durlstoncountrypark
Dusi parkrun,-29.611438,30.380781,South Africa,KwaZulu-Natal,uMgungundlovu District Municipality,https://www.parkrun.co.za/dusi
Eagan parkrun,44.797663,-93.175378,USA,Minnesota,Dakota,https://www.parkrun.us/eagan
East Brighton parkrun,50.818691,-0.099373,United Kingdom,England,Brighton and Hove,https://www.parkrun.org.uk/eastbrighton
East Coast Brewery parkrun,-30.195064,30.802362,South Africa,KwaZulu-Natal,eThekwini Metropolitan Municipality,https://www.parkrun.co.za/eastcoastbrewery
East Coast Park parkrun,1.294954,103.893129,Singapore,,,https://www.parkrun.sg/eastcoastpark
"East End parkrun, New Plymouth",-39.048356,174.093589,New Zealand,Taranaki,New Plymouth District,https://www.parkrun.co.nz/eastend
East Grinstead parkrun,51.129008,0.001373,United Kingdom,England,West Sussex,https://www.parkrun.org.uk/eastgrinstead
East Park parkrun,52.579042,-2.101975,United Kingdom,England,Wolverhampton,https://www.parkrun.org.uk/eastpark
East Richmond parkrun,-33.604814,150.774321,Australia,New South Wales,Hawkesbury,https://www.parkrun.com.au/eastrichmond
Eastbourne parkrun,50.806248,0.290451,United Kingdom,England,East Sussex,https://www.parkrun.org.uk/eastbourne
Eastern Gardens parkrun,-38.147322,144.378578,Australia,Victoria,Greater Geelong,https://www.parkrun.com.au/easterngardens
Eastleigh parkrun,50.971433,-1.374032,United Kingdom,England,Hampshire,https://www.parkrun.org.uk/eastleigh
Eastville parkrun,51.475453,-2.554304,United Kingdom,England,Bristol,https://www.parkrun.org.uk/eastville
Ebotse parkrun,-26.146747,28.352306,South Africa,Gauteng,Ekurhuleni Metropolitan Municipality,https://www.parkrun.co.za/ebotse
Ecco Ripley parkrun,-27.681056,152.80014,Australia,Queensland,Ipswich,https://www.parkrun.com.au/eccoripley
Echuca Moama parkrun,-36.139104,144.739213,Australia,Victoria,Shire of Campaspe,https://www.parkrun.com.au/echucamoama
"Ecos parkrun, Ballymena",54.867371,-6.259117,United Kingdom,Northern Ireland,Antrim,https://www.parkrun.org.uk/ecos
Ed Austin Regional parkrun,30.366599,-81.508085,USA,Florida,Duval,https://www.parkrun.us/edaustinregional
Eden Project parkrun,50.358315,-4.74285,United Kingdom,England,Cornwall,https://www.parkrun.org.uk/edenproject
Edenbrook Country parkrun,51.280199,-0.867088,United Kingdom,England,Hampshire,https://www.parkrun.org.uk/edenbrookcountry
Edenvale parkrun,-26.139608,28.14039,South Africa,Gauteng,Ekurhuleni Metropolitan Municipality,https://www.parkrun.co.za/edenvale
Edgbaston Reservoir parkrun,52.476722,-1.936437,United Kingdom,England,Birmingham,https://www.parkrun.org.uk/edgbastonreservoir
Edinburgh Oval parkrun,-32.003668,115.891775,Australia,Western Australia,Victoria Park,https://www.parkrun.com.au/edinburghoval
Edinburgh parkrun,55.978806,-3.291585,United Kingdom,Scotland,Edinburgh,https://www.parkrun.org.uk/edinburgh
Edithburgh parkrun,-35.080717,137.747177,Australia,South Australia,Yorke Peninsula,https://www.parkrun.com.au/edithburgh
Edwin Carolan Community parkrun,53.807985,-6.939783,Ireland,Ulster,Cavan,https://www.parkrun.ie/edwincarolancommunity
Eglinton parkrun,55.643935,-4.669662,United Kingdom,Scotland,North Ayrshire,https://www.parkrun.org.uk/eglinton
Egweni River Lodge parkrun,-26.901128,27.446698,South Africa,Orange Free State,Fezile Dabi District Municipality,https://www.parkrun.co.za/egweniriverlodge
Ekebergsletta parkrun,59.895921,10.777104,Norway,Oslo,Oslo,https://www.parkrun.no/ekebergsletta
Elder Park parkrun,55.863235,-4.32197,United Kingdom,Scotland,Glasgow City,https://www.parkrun.org.uk/elderpark
Eldorado Park parkrun,-26.298306,27.8918,South Africa,Gauteng,City of Johannesburg Metropolitan Municipality,https://www.parkrun.co.za/eldoradopark
Elgin parkrun,57.653393,-3.313072,United Kingdom,Scotland,Moray,https://www.parkrun.org.uk/elgin
Ellesmere Port parkrun,53.272524,-2.902542,United Kingdom,England,Cheshire,https://www.parkrun.org.uk/ellesmereport
Elliott Heads Beach parkrun,-24.92193,152.491565,Australia,Queensland,Bundaberg,https://www.parkrun.com.au/elliottheadsbeach
Ellon parkrun,57.359262,-2.056968,United Kingdom,Scotland,Aberdeenshire,https://www.parkrun.org.uk/ellon
Emerald parkrun,-23.531435,148.164253,Australia,Queensland,Central Highlands,https://www.parkrun.com.au/emerald
Endcliffe parkrun,53.368631,-1.507364,United Kingdom,England,Sheffield,https://www.parkrun.org.uk/endcliffe
Enniskillen parkrun,54.343834,-7.642293,United Kingdom,Northern Ireland,Fermanagh,https://www.parkrun.org.uk/enniskillen
Eramosa River Trail parkrun,43.540362,-80.241109,Canada,Ontario,Wellington County,https://www.parkrun.ca/eramosarivertrail
Erddig parkrun,53.027137,-3.006833,United Kingdom,Wales,Wrexham,https://www.parkrun.org.uk/erddig
Ernest Ullmann parkrun,-26.078938,28.073178,South Africa,Gauteng,City of Johannesburg Metropolitan Municipality,https://www.parkrun.co.za/ernestullmann
Erris parkrun,54.203272,-10.082041,Ireland,Connacht,Mayo,https://www.parkrun.ie/erris
Erskine Waterfront parkrun,55.907749,-4.447774,United Kingdom,Scotland,Renfrewshire,https://www.parkrun.org.uk/erskinewaterfront
Esbjerg parkrun,55.482349,8.442703,Denmark,South Denmark,Esbjerg Kommune,https://www.parkrun.dk/esbjerg
Etna parkrun,37.621125,15.008107,Italy,Sicily,Catania,https://www.parkrun.it/etna
Euroa parkrun,-36.752767,145.573825,Australia,Victoria,Strathbogie,https://www.parkrun.com.au/euroa
Evergreen parkrun,40.9496,-74.79777,USA,New Jersey,Sussex,https://www.parkrun.us/evergreen
Evesham parkrun,52.090191,-1.958122,United Kingdom,England,Worcestershire,https://www.parkrun.org.uk/evesham
Exeter Riverside parkrun,50.713762,-3.525833,United Kingdom,England,Devon,https://www.parkrun.org.uk/exeterriverside
Exmouth parkrun,50.614697,-3.412392,United Kingdom,England,Devon,https://www.parkrun.org.uk/exmouth
Exploration Place parkrun,37.689049,-97.347301,USA,Kansas,Sedgwick,https://www.parkrun.us/explorationplace
Fælledparken parkrun,55.701775,12.568917,Denmark,Capital Region,Copenhagen,https://www.parkrun.dk/faelledparken
Fairview parkrun,53.363864,-6.228896,Ireland,Leinster,Dublin,https://www.parkrun.ie/fairview
Falcarragh parkrun,55.140535,-8.099661,Ireland,Ulster,Donegal,https://www.parkrun.ie/falcarragh
Falkirk parkrun,55.99543,-3.766712,United Kingdom,Scotland,Falkirk,https://www.parkrun.org.uk/falkirk
"Falls parkrun, Belfast",54.586363,-5.978879,United Kingdom,Northern Ireland,Belfast,https://www.parkrun.org.uk/falls
Fareham parkrun,50.848448,-1.167385,United Kingdom,England,Hampshire,https://www.parkrun.org.uk/fareham
Farfalle parkrun,45.425905,11.902457,Italy,Veneto,Padua,https://www.parkrun.it/farfalle
Faskally Forest parkrun,56.7118,-3.767296,United Kingdom,Scotland,Perth and Kinross,https://www.parkrun.org.uk/faskallyforest
Father Collins parkrun,53.405158,-6.16021,Ireland,Leinster,Dublin,https://www.parkrun.ie/fathercollins
Favorita parkrun,38.159773,13.339815,Italy,Sicily,Province of Palermo,https://www.parkrun.it/favorita
Felixstowe parkrun,51.957778,1.345741,United Kingdom,England,Suffolk,https://www.parkrun.org.uk/felixstowe
"Fell Foot parkrun, Newby Bridge",54.274736,-2.952259,United Kingdom,England,Cumbria,https://www.parkrun.org.uk/fellfoot
Ferry Meadows parkrun,52.565563,-0.308132,United Kingdom,England,Peterborough,https://www.parkrun.org.uk/ferrymeadows
Ferryvale parkrun,-26.42512,28.481447,South Africa,Gauteng,Ekurhuleni Metropolitan Municipality,https://www.parkrun.co.za/ferryvale
Festningen parkrun,63.430394,10.410776,Norway,Trøndelag,Trondheim,https://www.parkrun.no/festningen
Fethard Town parkrun,52.470288,-7.696725,Ireland,Munster,Tipperary,https://www.parkrun.ie/fethardtown
Ficksburg parkrun,-28.863554,27.881193,South Africa,Orange Free State,Thabo Mofutsanyana District Municipality,https://www.parkrun.co.za/ficksburg
Fingal Bay parkrun,-32.742887,152.170644,Australia,New South Wales,Port Stephens Shire,https://www.parkrun.com.au/fingalbay
Finsbury parkrun,51.569595,-0.104145,United Kingdom,England,Greater London,https://www.parkrun.org.uk/finsbury
Fish Hoek parkrun,-34.120577,18.398581,South Africa,Western Cape,City of Cape Town,https://www.parkrun.co.za/fishhoek
Flatts Lane parkrun,54.543872,-1.151741,United Kingdom,England,Redcar and Cleveland,https://www.parkrun.org.uk/flattslane
Flaxmere parkrun,-39.62549,176.789073,New Zealand,Hawke's Bay,Hastings District,https://www.parkrun.co.nz/flaxmere
Fleetwood Promenade parkrun,53.927366,-3.016919,United Kingdom,England,Lancashire,https://www.parkrun.org.uk/fleetwoodpromenade
Flegg High parkrun,52.713022,1.640492,United Kingdom,England,Norfolk,https://www.parkrun.org.uk/flegghigh
Fletcher Moss parkrun,53.40999,-2.23551,United Kingdom,England,Manchester,https://www.parkrun.org.uk/fletchermoss
Fletcher’s Cove parkrun,38.919711,-77.10189,USA,"Washington, D.C.",Washington,https://www.parkrun.us/fletcherscove
Fodder Forest parkrun,-27.583123,153.293958,Australia,Queensland,Redland,https://www.parkrun.com.au/fodderforest
Folkestone parkrun,51.075729,1.172753,United Kingdom,England,Kent,https://www.parkrun.org.uk/folkestone
Foots Cray Meadows parkrun,51.432103,0.133269,United Kingdom,England,Greater London,https://www.parkrun.org.uk/footscraymeadows
Ford parkrun,54.198427,-3.088135,United Kingdom,England,Cumbria,https://www.parkrun.org.uk/ford
Forest Lake parkrun,-27.61964,152.967745,Australia,Queensland,Brisbane,https://www.parkrun.com.au/forestlake
Forest of Dean parkrun,51.808701,-2.605219,United Kingdom,England,Gloucestershire,https://www.parkrun.org.uk/forestofdean
Forest Rec parkrun,52.965352,-1.159766,United Kingdom,England,Nottingham,https://www.parkrun.org.uk/forestrec
Forfar Loch parkrun,56.642663,-2.908213,United Kingdom,Scotland,Angus,https://www.parkrun.org.uk/forfarloch
Foro Italico parkrun,38.120136,13.372298,Italy,Sicily,Province of Palermo,https://www.parkrun.it/foroitalico
Forster parkrun,-32.180174,152.519554,Australia,New South Wales,Mid-Coast,https://www.parkrun.com.au/forster
Fort William parkrun,56.851484,-4.999161,United Kingdom,Scotland,Highland,https://www.parkrun.org.uk/fortwilliam
Foster parkrun,-43.608599,172.385129,New Zealand,Canterbury,Selwyn District,https://www.parkrun.co.nz/foster
Fountains Abbey parkrun,54.110196,-1.581983,United Kingdom,England,North Yorkshire,https://www.parkrun.org.uk/fountainsabbey
Frank Keenan Reserve parkrun,-36.002211,146.02204,Australia,Victoria,Moira,https://www.parkrun.com.au/frankkeenanreserve
Frankston Nature Conservation Reserve parkrun,-38.17212,145.12985,Australia,Victoria,Frankston,https://www.parkrun.com.au/frankstonnatureconservationres
Franschhoek parkrun,-33.898945,19.091445,South Africa,Western Cape,Cape Winelands District Municipality,https://www.parkrun.co.za/franschhoek
Frédéric Back parkrun,45.558862,-73.620363,Canada,Quebec,Montréal,https://www.parkrun.ca/fredericback
Frickley Country parkrun,53.588573,-1.290457,United Kingdom,England,Wakefield,https://www.parkrun.org.uk/frickleycountry
Friedrichsau parkrun,48.411138,10.012702,Germany,Baden-Württemberg,Tübingen Region,https://www.parkrun.com.de/friedrichsau
Frimley Lodge parkrun,51.298622,-0.724851,United Kingdom,England,Surrey,https://www.parkrun.org.uk/frimleylodge
Frog Hollow parkrun,-37.991559,145.273622,Australia,Victoria,Casey,https://www.parkrun.com.au/froghollow
Frogmary Green Farm parkrun,50.941688,-2.824426,United Kingdom,England,Somerset,https://www.parkrun.org.uk/frogmarygreenfarm
Fukakitaryokuchi parkrun,34.73032,135.625805,Japan,Ōsaka,Neyagawa,https://www.parkrun.jp/fukakitaryokuchi
Fulbourn Hospital parkrun,52.184131,0.186094,United Kingdom,England,Cambridgeshire,https://www.parkrun.org.uk/fulbournhospital
Fuldaaue parkrun,50.543388,9.664673,Germany,Hesse,Regierungsbezirk Kassel,https://www.parkrun.com.de/fuldaaue
Fulham Palace parkrun,51.472465,-0.218493,United Kingdom,England,Greater London,https://www.parkrun.org.uk/fulhampalace
Futakotamagawa parkrun,35.606442,139.633181,Japan,Tokyo,Setagaya-ku,https://www.parkrun.jp/futakotamagawa
Gadebridge parkrun,51.758909,-0.473542,United Kingdom,England,Hertfordshire,https://www.parkrun.org.uk/gadebridge
Gainsborough Greens parkrun,-27.81877,153.306901,Australia,Queensland,Gold Coast,https://www.parkrun.com.au/gainsboroughgreens
Galston parkrun,-33.642734,151.043648,Australia,New South Wales,Hornsby Shire,https://www.parkrun.com.au/galston
Ganavan Sands parkrun,56.437766,-5.469021,United Kingdom,Scotland,Argyll and Bute,https://www.parkrun.org.uk/ganavansands
Ganger Farm parkrun,51.009374,-1.464821,United Kingdom,England,Hampshire,https://www.parkrun.org.uk/gangerfarm
Gardiners Creek parkrun,-37.845344,145.114787,Australia,Victoria,Whitehorse,https://www.parkrun.com.au/gardinerscreek
Garvagh Forest parkrun,54.977416,-6.695537,United Kingdom,Northern Ireland,Derry,https://www.parkrun.org.uk/garvaghforest
Garvey Park parkrun,-31.922558,115.941181,Australia,Western Australia,Belmont,https://www.parkrun.com.au/garveypark
Gateshead parkrun,54.944733,-1.602094,United Kingdom,England,Gateshead,https://www.parkrun.org.uk/gateshead
Gatton parkrun,-27.570426,152.270476,Australia,Queensland,Lockyer Valley,https://www.parkrun.com.au/gatton
Gawler parkrun,-34.590841,138.750027,Australia,South Australia,Gawler,https://www.parkrun.com.au/gawler
Gayndah River Walk parkrun,-25.624063,151.611063,Australia,Queensland,North Burnett,https://www.parkrun.com.au/gayndahriverwalk
Gedling parkrun,52.993919,-1.087124,United Kingdom,England,Nottinghamshire,https://www.parkrun.org.uk/gedling
Geeveston parkrun,-43.163256,146.925685,Australia,Tasmania,Huon Valley,https://www.parkrun.com.au/geeveston
Geographe Bay parkrun,-33.642342,115.354374,Australia,Western Australia,Busselton,https://www.parkrun.com.au/geographebay
George Lane Memorial parkrun,50.579381,-113.879142,Canada,Alberta,High River,https://www.parkrun.ca/georgelanememorial
George parkrun,-33.945385,22.464767,South Africa,Western Cape,Eden District Municipality,https://www.parkrun.co.za/george
George Town parkrun,-41.109186,146.821208,Australia,Tasmania,George Town,https://www.parkrun.com.au/georgetown
Georgengarten parkrun,52.3905,9.702945,Germany,Lower Saxony,,https://www.parkrun.com.de/georgengarten
Gillies Lake parkrun,48.480373,-81.321352,Canada,Ontario,Cochrane District,https://www.parkrun.ca/gillieslake
Gilloolys parkrun,-26.165394,28.131554,South Africa,Gauteng,Ekurhuleni Metropolitan Municipality,https://www.parkrun.co.za/gilloolys
Ginninderra parkrun,-35.234051,149.073486,Australia,Australian Capital Territory,,https://www.parkrun.com.au/ginninderra
Girvan Prom parkrun,55.243994,-4.862538,United Kingdom,Scotland,South Ayrshire,https://www.parkrun.org.uk/girvanprom
Gisborne parkrun,-38.671021,178.018082,New Zealand,Gisborne,Gisborne District,https://www.parkrun.co.nz/gisborne
Gladstone parkrun,51.556982,-0.228223,United Kingdom,England,Greater London,https://www.parkrun.org.uk/gladstone
Gladstone QLD parkrun,-23.871873,151.238458,Australia,Queensland,Gladstone,https://www.parkrun.com.au/gladstoneqld
Glass House Mountains Conservation parkrun,-26.986817,152.823678,Australia,Queensland,Moreton Bay,https://www.parkrun.com.au/glasshousemountainsconservation
Glen River parkrun,51.912716,-8.455532,Ireland,Munster,Cork,https://www.parkrun.ie/glenriver
Glengarriff parkrun,51.755548,-9.566904,Ireland,Munster,Cork,https://www.parkrun.ie/glengarriff
Glenoma parkrun,-16.899012,145.708784,Australia,Queensland,Cairns,https://www.parkrun.com.au/glenoma
Globe parkrun,49.104155,9.742718,Germany,Baden-Württemberg,Regierungsbezirk Stuttgart,https://www.parkrun.com.de/globe
Glossop parkrun,53.447019,-1.939503,United Kingdom,England,Derbyshire,https://www.parkrun.org.uk/glossop
Gloucester City parkrun,51.858707,-2.243129,United Kingdom,England,Gloucestershire,https://www.parkrun.org.uk/gloucestercity
Gloucester District parkrun,-32.00456,151.953594,Australia,New South Wales,Mid-Coast,https://www.parkrun.com.au/gloucesterdistrict
Gloucester North parkrun,51.878304,-2.231707,United Kingdom,England,Gloucestershire,https://www.parkrun.org.uk/gloucesternorth
Gnoll parkrun,51.661114,-3.788616,United Kingdom,Wales,Neath Port Talbot,https://www.parkrun.org.uk/gnoll
Goffert parkrun,51.82902,5.833825,Netherlands,Gelderland,Gemeente Nijmegen,https://www.parkrun.co.nl/goffert
Golden Beach parkrun,-26.829014,153.120795,Australia,Queensland,Sunshine Coast,https://www.parkrun.com.au/goldenbeach
Golden Harvest parkrun,-26.069116,27.95355,South Africa,Gauteng,City of Johannesburg Metropolitan Municipality,https://www.parkrun.co.za/goldenharvest
Goldfields Reservoir parkrun,-37.065018,143.731855,Australia,Victoria,Central Goldfields,https://www.parkrun.com.au/goldfieldsreservoir
Goole parkrun,53.710492,-0.891098,United Kingdom,England,East Yorkshire,https://www.parkrun.org.uk/goole
Goolwa parkrun,-35.499385,138.789448,Australia,South Australia,Alexandrina,https://www.parkrun.com.au/goolwa
Goondiwindi parkrun,-28.54951,150.307043,Australia,Queensland,Goondiwindi,https://www.parkrun.com.au/goondiwindi
Gorey parkrun,52.683044,-6.296041,Ireland,Leinster,Wexford,https://www.parkrun.ie/gorey
Gorleston Cliffs parkrun,52.567806,1.73069,United Kingdom,England,Norfolk,https://www.parkrun.org.uk/gorleston
Goulburn parkrun,-34.736445,149.706096,Australia,New South Wales,Goulburn Mulwaree,https://www.parkrun.com.au/goulburn
Gracepoint parkrun,-26.002734,28.033908,South Africa,Gauteng,City of Johannesburg Metropolitan Municipality,https://www.parkrun.co.za/gracepoint
Grafton parkrun,-29.643847,152.920487,Australia,New South Wales,Clarence Valley,https://www.parkrun.com.au/grafton
Graham Andrews parkrun,-26.412576,146.244782,Australia,Queensland,Murweh,https://www.parkrun.com.au/grahamandrews
Grahamstown parkrun,-33.314705,26.520674,South Africa,Eastern Cape,Sarah Baartman District Municipality,https://www.parkrun.co.za/grahamstown
"Grand Ridge Rail Trail parkrun, Mirboo North",-38.400561,146.16502,Australia,Victoria,South Gippsland,https://www.parkrun.com.au/grandridgerailtrail
Grangemoor parkrun,51.454464,-3.192412,United Kingdom,Wales,Cardiff,https://www.parkrun.org.uk/grangemoor
Graves parkrun,53.338906,-1.464657,United Kingdom,England,Sheffield,https://www.parkrun.org.uk/graves
Great Cornard parkrun,52.02463,0.751362,United Kingdom,England,Suffolk,https://www.parkrun.org.uk/greatcornard
Great Denham parkrun,52.121602,-0.509062,United Kingdom,England,Bedford,https://www.parkrun.org.uk/greatdenham
Great Dunmow parkrun,51.878681,0.3627,United Kingdom,England,Essex,https://www.parkrun.org.uk/greatdunmow
"Great Lines parkrun, Medway",51.388527,0.541334,United Kingdom,England,Medway,https://www.parkrun.org.uk/greatlines
Great Notley parkrun,51.864147,0.51584,United Kingdom,England,Essex,https://www.parkrun.org.uk/greatnotley
Great Salterns parkrun,50.809385,-1.046606,United Kingdom,England,Portsmouth,https://www.parkrun.org.uk/greatsalterns
Great Yarmouth North Beach parkrun,52.613141,1.73892,United Kingdom,England,Norfolk,https://www.parkrun.org.uk/greatyarmouthnorthbeach
Greenbank parkrun,-27.739202,152.922846,Australia,Queensland,Logan,https://www.parkrun.com.au/greenbank
Greenfield Valley parkrun,53.275044,-3.220992,United Kingdom,Wales,Flintshire,https://www.parkrun.org.uk/greenfieldvalley
Greenock parkrun,55.956525,-4.767348,United Kingdom,Scotland,Inverclyde,https://www.parkrun.org.uk/greenock
Greenpoint parkrun,-33.905997,18.407056,South Africa,Western Cape,City of Cape Town,https://www.parkrun.co.za/greenpoint
Greenstone Hill parkrun,-26.120288,28.146204,South Africa,Gauteng,City of Johannesburg Metropolitan Municipality,https://www.parkrun.co.za/greenstonehill
GreenWay parkrun,-33.882504,151.14457,Australia,New South Wales,Inner West,https://www.parkrun.com.au/greenway
Greenwich parkrun,51.449459,0.075155,United Kingdom,England,Greater London,https://www.parkrun.org.uk/greenwich
Grey Goose parkrun,-27.733307,29.892468,South Africa,KwaZulu-Natal,Amajuba District Municipality,https://www.parkrun.co.za/greygoose
Greytown Woodside Trail parkrun,-41.067449,175.403236,New Zealand,Wellington,South Wairarapa District,https://www.parkrun.co.nz/greytownwoodsidetrail
Griffeen parkrun,53.343685,-6.445112,Ireland,Leinster,Dublin,https://www.parkrun.ie/griffeen
Groe parkrun,52.150418,-3.403113,United Kingdom,Wales,Powys,https://www.parkrun.org.uk/groe
Groeneweide parkrun,-34.589792,19.404166,South Africa,Western Cape,Overberg District Municipality,https://www.parkrun.co.za/groeneweide
Grove Fields parkrun,51.600059,-1.425256,United Kingdom,England,Oxfordshire,https://www.parkrun.org.uk/grovefields
"Grovelands parkrun, Enfield",51.633076,-0.113769,United Kingdom,England,Greater London,https://www.parkrun.org.uk/grovelands
Grüner Weg parkrun,48.466077,9.422082,Germany,Baden-Württemberg,Tübingen Region,https://www.parkrun.com.de/gruenerweg
Guernsey parkrun,49.502341,-2.530312,United Kingdom,Guernsey,,https://www.parkrun.org.uk/guernsey
Guildford parkrun,51.247383,-0.562062,United Kingdom,England,Surrey,https://www.parkrun.org.uk/guildford
Gungahlin parkrun,-35.178952,149.129405,Australia,Australian Capital Territory,,https://www.parkrun.com.au/gungahlin
Gunnersbury parkrun,51.499405,-0.292253,United Kingdom,England,Greater London,https://www.parkrun.org.uk/gunnersbury
Gunpowder parkrun,51.676037,-0.000831,United Kingdom,England,Essex,https://www.parkrun.org.uk/gunpowder
Guysborough Nature Trail parkrun,45.38438,-61.505609,Canada,Nova Scotia,Guysborough County,https://www.parkrun.ca/guysboroughnaturetrail
Gyodashi sogokoen parkrun,36.154306,139.449093,Japan,Saitama,Gyōda Shi,https://www.parkrun.jp/gyodashisogokoen
Hackney Marshes parkrun,51.553686,-0.025368,United Kingdom,England,Greater London,https://www.parkrun.org.uk/hackneymarshes
Hackworth parkrun,54.628071,-1.644945,United Kingdom,England,Durham,https://www.parkrun.org.uk/hackworth
"Hadleigh parkrun, Essex",51.549769,0.59606,United Kingdom,England,Essex,https://www.parkrun.org.uk/hadleigh
Hafan Pwllheli parkrun,52.888538,-4.402811,United Kingdom,Wales,Gwynedd,https://www.parkrun.org.uk/hafanpwllheli
Haga parkrun,59.354555,18.039292,Sweden,Stockholm,Solna Municipality,https://www.parkrun.se/haga
Hagley parkrun,-43.528594,172.62282,New Zealand,Canterbury,Christchurch City,https://www.parkrun.co.nz/hagley
Haigh Woodland parkrun,53.572714,-2.609519,United Kingdom,England,Wigan,https://www.parkrun.org.uk/haighwoodland
Haldon Forest parkrun,50.653392,-3.579359,United Kingdom,England,Devon,https://www.parkrun.org.uk/haldonforest
Halifax parkrun,53.731746,-1.873871,United Kingdom,England,Calderdale,https://www.parkrun.org.uk/halifax
"Halls parkrun, Nelspruit",-25.456949,30.937114,South Africa,Mpumalanga,Ehlanzeni District,https://www.parkrun.co.za/halls
Hamilton Island parkrun,-20.345551,148.95513,Australia,Queensland,Whitsunday,https://www.parkrun.com.au/hamiltonisland
Hamilton Lake parkrun,-37.799693,175.272381,New Zealand,Waikato,Hamilton City,https://www.parkrun.co.nz/hamiltonlake
Hamilton Park parkrun,-46.095775,168.958159,New Zealand,Southland,Gore District,https://www.parkrun.co.nz/hamiltonpark
Hamilton parkrun,-37.737592,142.040024,Australia,Victoria,Southern Grampians,https://www.parkrun.com.au/hamilton
Hamlet Park parkrun,44.821408,-92.957775,USA,Minnesota,Washington,https://www.parkrun.us/hamletpark
Hampstead Heath parkrun,51.558598,-0.168185,United Kingdom,England,Greater London,https://www.parkrun.org.uk/hampsteadheath
Hampton Oval parkrun,-20.666182,116.70334,Australia,Western Australia,Karratha,https://www.parkrun.com.au/hamptonoval
Hamsterley Forest parkrun,54.675593,-1.858786,United Kingdom,England,Durham,https://www.parkrun.org.uk/hamsterleyforest
Hanley parkrun,53.012501,-2.175164,United Kingdom,England,Stoke-on-Trent,https://www.parkrun.org.uk/hanley
Hanworth parkrun,51.43874,-0.398287,United Kingdom,England,Greater London,https://www.parkrun.org.uk/hanworth
Harayama koen parkrun,34.483062,135.492885,Japan,Ōsaka,Sakai,https://www.parkrun.jp/harayamakoen
Harcourt Hill parkrun,51.739369,-1.295191,United Kingdom,England,Oxfordshire,https://www.parkrun.org.uk/harcourthill
Harkerville parkrun,-34.038421,23.24131,South Africa,Western Cape,Eden District Municipality,https://www.parkrun.co.za/harkerville
Harleston Magpies parkrun,52.384367,1.295457,United Kingdom,England,Suffolk,https://www.parkrun.org.uk/harlestonmagpies
Harlow parkrun,51.77766,0.103624,United Kingdom,England,Essex,https://www.parkrun.org.uk/harlow
Harris Avenue parkrun,-27.171876,152.94537,Australia,Queensland,Moreton Bay,https://www.parkrun.com.au/harrisavenue
Harrismith parkrun,-28.279106,29.151059,South Africa,Orange Free State,Thabo Mofutsanyana District Municipality,https://www.parkrun.co.za/harrismith
Harrogate parkrun,53.992428,-1.521435,United Kingdom,England,North Yorkshire,https://www.parkrun.org.uk/harrogate
Harrow Lodge parkrun,51.555606,0.200715,United Kingdom,England,Greater London,https://www.parkrun.org.uk/harrowlodge
Harrow parkrun,51.581781,-0.342734,United Kingdom,England,Greater London,https://www.parkrun.org.uk/harrow
Hart & Bosch Village parkrun,-34.112649,22.106174,South Africa,Western Cape,Eden District Municipality,https://www.parkrun.co.za/hartenboschvillage
Hartlepool parkrun,54.686937,-1.195128,United Kingdom,England,Hartlepool,https://www.parkrun.org.uk/hartlepool
Hartstown parkrun,53.395076,-6.415828,Ireland,Leinster,Dublin,https://www.parkrun.ie/hartstown
Harwich parkrun,51.938035,1.284809,United Kingdom,England,Essex,https://www.parkrun.org.uk/harwich
Hasenheide parkrun,52.482928,13.416029,Germany,Berlin,,https://www.parkrun.com.de/hasenheide
Hastings Foreshore parkrun,-38.307311,145.196651,Australia,Victoria,Mornington Peninsula,https://www.parkrun.com.au/hastingsforeshore
Hastings High School parkrun,52.53526,-1.356127,United Kingdom,England,Leicestershire,https://www.parkrun.org.uk/hastingshighschool
Hastings parkrun,50.850291,0.539739,United Kingdom,England,East Sussex,https://www.parkrun.org.uk/hastings
Havant parkrun,50.875771,-0.975565,United Kingdom,England,Hampshire,https://www.parkrun.org.uk/havant
Haverfordwest parkrun,51.797163,-4.992836,United Kingdom,Wales,Pembrokeshire,https://www.parkrun.org.uk/haverfordwest
Haverhill parkrun,52.076737,0.422212,United Kingdom,England,Suffolk,https://www.parkrun.org.uk/haverhill
Hay Lodge parkrun,55.651659,-3.199586,United Kingdom,Scotland,Scottish Borders,https://www.parkrun.org.uk/haylodge
Hazeldean Farm parkrun,-25.773305,28.400571,South Africa,Gauteng,City of Tshwane Metropolitan Municipality,https://www.parkrun.co.za/hazeldeanfarm
Hazelwood parkrun,51.405783,-0.421045,United Kingdom,England,Surrey,https://www.parkrun.org.uk/hazelwood
"Hazlehead parkrun, Aberdeen",57.141371,-2.175647,United Kingdom,Scotland,Aberdeen City,https://www.parkrun.org.uk/hazlehead
Hazyview parkrun,-25.035941,31.115198,South Africa,Mpumalanga,Ehlanzeni District,https://www.parkrun.co.za/hazyview
Heartlands parkrun,50.224177,-5.2715,United Kingdom,England,Cornwall,https://www.parkrun.org.uk/heartlands
Heaton parkrun,53.531975,-2.256263,United Kingdom,England,Manchester,https://www.parkrun.org.uk/heaton
Heidedal parkrun,-29.147255,26.261942,South Africa,Orange Free State,Mangaung Metropolitan Municipality,https://www.parkrun.co.za/heidedal
Heijo kyuseki Rekishi koen parkrun,34.691517,135.792513,Japan,Nara,Nara-shi,https://www.parkrun.jp/heijokyusekirekishikoen
Hellbrunn parkrun,47.761065,13.065462,Austria,Salzburg,Salzburg,https://www.parkrun.co.at/hellbrunn
Henderson Lake parkrun,49.687498,-112.80646,Canada,Alberta,Lethbridge,https://www.parkrun.ca/hendersonlake
"Henley Wood parkrun, Oswestry",52.862542,-3.030368,United Kingdom,England,Shropshire,https://www.parkrun.org.uk/henleywood
Henley-on-Thames parkrun,51.531978,-0.919288,United Kingdom,England,Oxfordshire,https://www.parkrun.org.uk/henleyonthames
Henlow Bridge Lakes parkrun,52.030537,-0.268787,United Kingdom,England,Central Bedfordshire,https://www.parkrun.org.uk/henlowbridgelakes
Henry Kendall Reserve parkrun,-31.636004,152.794806,Australia,New South Wales,Port Macquarie-Hastings,https://www.parkrun.com.au/henrykendallreserve
Henstridge Airfield parkrun,50.985278,-2.352992,United Kingdom,England,Somerset,https://www.parkrun.org.uk/henstridgeairfield
Hereford parkrun,52.068892,-2.724152,United Kingdom,England,Herefordshire,https://www.parkrun.org.uk/hereford
"Heritage Harbor parkrun, Ottawa",41.341177,-88.785212,USA,Illinois,LaSalle,https://www.parkrun.us/heritageharbor
Hermanus parkrun,-34.397417,19.215074,South Africa,Western Cape,Overberg District Municipality,https://www.parkrun.co.za/hermanus
Herrington Country parkrun,54.876573,-1.476809,United Kingdom,England,Sunderland,https://www.parkrun.org.uk/herringtoncountry
Hervey Bay parkrun,-25.283163,152.90367,Australia,Queensland,Fraser Coast,https://www.parkrun.com.au/herveybay
Heslington parkrun,53.949319,-1.01799,United Kingdom,England,York,https://www.parkrun.org.uk/heslington
"Higginson parkrun, Marlow",51.566268,-0.779573,United Kingdom,England,Buckinghamshire,https://www.parkrun.org.uk/higginsonmarlow
Highbury Fields parkrun,51.546959,-0.102884,United Kingdom,England,Greater London,https://www.parkrun.org.uk/highburyfields
Highfields parkrun,-27.453643,151.938702,Australia,Queensland,Toowoomba,https://www.parkrun.com.au/highfields
Highlands parkrun,-37.59106,144.903713,Australia,Victoria,Hume,https://www.parkrun.com.au/highlands
Highwoods parkrun,51.904682,0.917561,United Kingdom,England,Essex,https://www.parkrun.org.uk/highwoods
Hikarigaoka koen parkrun,35.764758,139.629926,Japan,Tokyo,Nerima-ku,https://www.parkrun.jp/hikarigaokakoen
Hillsborough Forest parkrun,54.461336,-6.076662,United Kingdom,Northern Ireland,Down,https://www.parkrun.org.uk/hillsboroughforest
Hillsborough parkrun,53.408457,-1.501973,United Kingdom,England,Sheffield,https://www.parkrun.org.uk/hillsborough
Hillside parkrun,-25.67966,28.154745,South Africa,Gauteng,City of Tshwane Metropolitan Municipality,https://www.parkrun.co.za/hillside
Hilly Fields parkrun,51.460143,-0.025019,United Kingdom,England,Greater London,https://www.parkrun.org.uk/hillyfields
Hilton parkrun,-29.539048,30.296952,South Africa,KwaZulu-Natal,uMgungundlovu District Municipality,https://www.parkrun.co.za/hilton
Himmel parkrun,32.234813,-110.931841,USA,Arizona,Pima,https://www.parkrun.us/himmel
Hirono kaigankoen parkrun,34.924996,138.378513,Japan,Shizuoka,Shizuoka-shi,https://www.parkrun.jp/hironokaigankoen
Hluhluwe parkrun,-28.007628,32.27309,South Africa,KwaZulu-Natal,uMkhanyakude District Municipality,https://www.parkrun.co.za/hluhluwe
Hoblingwell parkrun,51.400981,0.098847,United Kingdom,England,Greater London,https://www.parkrun.org.uk/hoblingwell
Hobsonville Point parkrun,-36.790147,174.672716,New Zealand,Auckland,Auckland,https://www.parkrun.co.nz/hobsonvillepoint
Hockgraben parkrun,47.682837,9.184252,Germany,Baden-Württemberg,Freiburg Region,https://www.parkrun.com.de/hockgraben
Hockley Woods parkrun,51.596133,0.64912,United Kingdom,England,Essex,https://www.parkrun.org.uk/hockleywoods
Hoedspruit parkrun,-24.314398,30.924097,South Africa,Limpopo,Mopani District Municipality,https://www.parkrun.co.za/hoedspruit
Hogmoor Inclosure parkrun,51.111681,-0.875934,United Kingdom,England,Hampshire,https://www.parkrun.org.uk/hogmoorinclosure
Hogsback parkrun,-32.601434,26.917929,South Africa,Eastern Cape,Amathole District Municipality,https://www.parkrun.co.za/hogsback
Holkham parkrun,52.950159,0.801022,United Kingdom,England,Norfolk,https://www.parkrun.org.uk/holkham
Holy Cross College parkrun,54.815718,-7.477408,United Kingdom,Northern Ireland,Tyrone,https://www.parkrun.org.uk/holycrosscollege
Holyrood parkrun,55.952167,-3.162844,United Kingdom,Scotland,Edinburgh,https://www.parkrun.org.uk/holyrood
Homestead Lake parkrun,-26.17348,28.29274,South Africa,Gauteng,Ekurhuleni Metropolitan Municipality,https://www.parkrun.co.za/homesteadlake
Homestead parkrun,-32.053807,115.970386,Australia,Western Australia,Gosnells,https://www.parkrun.com.au/homestead
Homewood parkrun,51.366808,-0.539078,United Kingdom,England,Surrey,https://www.parkrun.org.uk/homewood
Hondajima parkrun,35.35618,136.836501,Japan,Aichi,Kōnan-shi,https://www.parkrun.jp/hondajima
Horinouchi koen parkrun,33.841329,132.764078,Japan,Ehime,Matsuyama-shi,https://www.parkrun.jp/horinouchikoen
Horseshoe Bay Reserve parkrun,-30.883931,153.042179,Australia,New South Wales,Kempsey,https://www.parkrun.com.au/horseshoebayreserve
Horsham parkrun,51.06651,-0.327908,United Kingdom,England,West Sussex,https://www.parkrun.org.uk/horsham
Horspath parkrun,51.737281,-1.188165,United Kingdom,England,Oxfordshire,https://www.parkrun.org.uk/horspath
Horton Park parkrun,53.782455,-1.77538,United Kingdom,England,Bradford,https://www.parkrun.org.uk/hortonpark
Houghton Hall parkrun,51.90155,-0.510046,United Kingdom,England,Central Bedfordshire,https://www.parkrun.org.uk/houghtonhall
Hout Bay parkrun,-34.033717,18.351737,South Africa,Western Cape,City of Cape Town,https://www.parkrun.co.za/houtbay
Hove Promenade parkrun,50.823391,-0.166594,United Kingdom,England,Brighton and Hove,https://www.parkrun.org.uk/hovepromenade
Howard Temin Lakeshore Path parkrun,43.076831,-89.398831,USA,Wisconsin,Dane,https://www.parkrun.us/howardteminlakeshorepath
Huddersfield parkrun,53.650608,-1.800685,United Kingdom,England,Kirklees,https://www.parkrun.org.uk/huddersfield
Huddinge parkrun,59.248612,17.950678,Sweden,Stockholm,Huddinge Municipality,https://www.parkrun.se/huddinge
Hull parkrun,53.764645,-0.300708,United Kingdom,England,Kingston upon Hull,https://www.parkrun.org.uk/hull
Humber Bridge parkrun,53.71723,-0.453352,United Kingdom,England,East Yorkshire,https://www.parkrun.org.uk/humberbridge
Hunstanton Promenade parkrun,52.941684,0.486526,United Kingdom,England,Norfolk,https://www.parkrun.org.uk/hunstantonpromenade
Huntingdon parkrun,52.32936,-0.211025,United Kingdom,England,Cambridgeshire,https://www.parkrun.org.uk/huntingdon
Huskisson parkrun,-35.049429,150.677109,Australia,New South Wales,Shoalhaven Shire,https://www.parkrun.com.au/huskisson
Hyde parkrun,53.45713,-2.076554,United Kingdom,England,Tameside,https://www.parkrun.org.uk/hyde
Hyndburn parkrun,53.781711,-2.376734,United Kingdom,England,Lancashire,https://www.parkrun.org.uk/hyndburn
Ifield Mill Pond parkrun,51.107508,-0.218863,United Kingdom,England,West Sussex,https://www.parkrun.org.uk/ifieldmillpond
Illaunmanagh parkrun,52.700096,-8.873242,Ireland,Munster,Clare,https://www.parkrun.ie/illaunmanagh
Inch Beach parkrun,52.137776,-9.977697,Ireland,Munster,Kerry,https://www.parkrun.ie/inchbeach
Inibos parkrun,-29.106928,26.143802,South Africa,Orange Free State,Mangaung Metropolitan Municipality,https://www.parkrun.co.za/inibos
Invercargill parkrun,-46.404097,168.356606,New Zealand,Southland,Invercargill City,https://www.parkrun.co.nz/invercargill
Inverell parkrun,-29.77388,151.10897,Australia,New South Wales,Inverell,https://www.parkrun.com.au/inverell
Inverloch parkrun,-38.639515,145.719625,Australia,Victoria,Bass Coast,https://www.parkrun.com.au/inverloch
Ipswich parkrun,52.050923,1.116032,United Kingdom,England,Suffolk,https://www.parkrun.org.uk/ipswich
Ipswich QLD parkrun,-27.625421,152.764292,Australia,Queensland,Ipswich,https://www.parkrun.com.au/ipswichqld
Irchester Country parkrun,52.285076,-0.673649,United Kingdom,England,Northamptonshire,https://www.parkrun.org.uk/irchestercountry
Isabel Trail parkrun,52.808242,-2.125953,United Kingdom,England,Staffordshire,https://www.parkrun.org.uk/isabeltrail
Itchen Valley Country parkrun,50.944849,-1.341722,United Kingdom,England,Hampshire,https://www.parkrun.org.uk/itchenvalleycountry
Jacobsdal parkrun,-29.132198,24.778901,South Africa,Orange Free State,Xhariep District Municipality,https://www.parkrun.co.za/jacobsdal
Jamaica Pond parkrun,42.320216,-71.118049,USA,Massachusetts,Suffolk,https://www.parkrun.us/jamaicapond
Jamestown Golf Course parkrun,-33.228546,138.561957,Australia,South Australia,Northern Areas,https://www.parkrun.com.au/jamestowngolfcourse
Jarrahdale Heritage parkrun,-32.33521,116.058618,Australia,Western Australia,Serpentine-Jarrahdale,https://www.parkrun.com.au/jarrahdaleheritage
Jeffreys Bay parkrun,-34.035359,24.893197,South Africa,Eastern Cape,Sarah Baartman District Municipality,https://www.parkrun.co.za/jeffreysbay
Jells parkrun,-37.897912,145.193976,Australia,Victoria,Monash,https://www.parkrun.com.au/jells
Jerrabomberra Mountain Reserve parkrun,-35.376524,149.20315,Australia,New South Wales,Queanbeyan-Palerang Regional,https://www.parkrun.com.au/jerrabomberramountainreserve
Jersey Farm parkrun,51.773718,-0.307978,United Kingdom,England,Hertfordshire,https://www.parkrun.org.uk/jerseyfarm
Jersey parkrun,49.195026,-2.204124,United Kingdom,Jersey,,https://www.parkrun.org.uk/jersey
Jesmond Dene parkrun,54.99188,-1.592839,United Kingdom,England,Newcastle upon Tyne,https://www.parkrun.org.uk/jesmonddene
Jindabyne Sport and Recreation parkrun,-36.433908,148.616972,Australia,New South Wales,Snowy Monaro Regional,https://www.parkrun.com.au/jindabynesportandrecreation
Jock Trail parkrun,-24.935634,30.842816,South Africa,Mpumalanga,Ehlanzeni District,https://www.parkrun.co.za/jocktrail
Joe Creason parkrun,38.210534,-85.705759,USA,Kentucky,Jefferson,https://www.parkrun.us/joecreason
Jubilee parkrun,54.701073,-1.604602,United Kingdom,England,Durham,https://www.parkrun.org.uk/jubilee
Jubilee Way parkrun,-34.806102,138.69439,Australia,South Australia,Tea Tree Gully,https://www.parkrun.com.au/jubileeway
Jurien Bay Foreshore parkrun,-30.302452,115.037533,Australia,Western Australia,Dandaragan,https://www.parkrun.com.au/jurienbayforeshore
Kadina Trail parkrun,-31.92623,116.026041,Australia,Western Australia,Swan,https://www.parkrun.com.au/kadinatrail
Kagerzoom parkrun,52.185181,4.501654,Netherlands,South Holland,Teylingen,https://www.parkrun.co.nl/kagerzoom
Kalgoorlie-Boulder parkrun,-30.718868,121.456625,Australia,Western Australia,Kalgoorlie/Boulder,https://www.parkrun.com.au/kalgoorlieboulder
Kamay parkrun,-33.97993,151.229992,Australia,New South Wales,Randwick,https://www.parkrun.com.au/kamay
Kameeldoring parkrun,-24.212016,28.989911,South Africa,Limpopo,Waterberg District Municipality,https://www.parkrun.co.za/kameeldoring
"Kanata parkrun, Ottawa",45.331895,-75.919788,Canada,Ontario,Ottawa,https://www.parkrun.ca/kanata
Kangaroo Island parkrun,-35.655848,137.640473,Australia,South Australia,Kangaroo Island,https://www.parkrun.com.au/kangarooisland
Kapiti Coast parkrun,-40.877245,175.019587,New Zealand,Wellington,Kapiti Coast District,https://www.parkrun.co.nz/kapiticoast
Karkarook parkrun,-37.940079,145.086858,Australia,Victoria,Kingston,https://www.parkrun.com.au/karkarook
Karoola Park parkrun,-32.255338,150.895351,Australia,New South Wales,Muswellbrook,https://www.parkrun.com.au/karoolapark
Karpendonkse Plas parkrun,51.451601,5.498621,Netherlands,North Brabant,Gemeente Eindhoven,https://www.parkrun.co.nl/karpendonkseplas
Kashiwanoha parkrun,35.894203,139.941344,Japan,Chiba,Kashiwa Shi,https://www.parkrun.jp/kashiwanoha
Kastanienallee parkrun,48.515457,9.046693,Germany,Baden-Württemberg,Tübingen Region,https://www.parkrun.com.de/kastanienallee
Kate Reed parkrun,-41.47567,147.138035,Australia,Tasmania,Launceston,https://www.parkrun.com.au/katereed
Kathu parkrun,-27.728925,23.057004,South Africa,Northern Cape,John Taolo Gaetsewe District Municipality,https://www.parkrun.co.za/kathu
Kawana parkrun,-26.702046,153.135488,Australia,Queensland,Sunshine Coast,https://www.parkrun.com.au/kawana
Kedron parkrun,-27.406927,153.046297,Australia,Queensland,Brisbane,https://www.parkrun.com.au/kedron
Kei Mouth parkrun,-32.696233,28.364151,South Africa,Eastern Cape,Amathole District Municipality,https://www.parkrun.co.za/keimouth
Kelvin Grove parkrun,-27.441334,153.009807,Australia,Queensland,Brisbane,https://www.parkrun.com.au/kelvingrove
Kemnader See parkrun,51.438069,7.281266,Germany,North Rhine-Westphalia,Regierungsbezirk Arnsberg,https://www.parkrun.com.de/kemnadersee
Kennington Reservoir parkrun,-36.772141,144.312232,Australia,Victoria,Greater Bendigo,https://www.parkrun.com.au/kenningtonreservoir
Kensington parkrun,39.027743,-77.089077,USA,Maryland,Montgomery,https://www.parkrun.us/kensington
Kerang Regional parkrun,-35.730934,143.908707,Australia,Victoria,Gannawarra,https://www.parkrun.com.au/kerangregional
Kesgrave parkrun,52.058138,1.257741,United Kingdom,England,Suffolk,https://www.parkrun.org.uk/kesgrave
Keswick parkrun,54.603863,-3.129497,United Kingdom,England,Cumbria,https://www.parkrun.org.uk/keswick
Kettering parkrun,52.384226,-0.710653,United Kingdom,England,Northamptonshire,https://www.parkrun.org.uk/kettering
Kew Woods parkrun,53.629073,-2.995064,United Kingdom,England,Sefton,https://www.parkrun.org.uk/kewwoods
Kidds Beach parkrun,-33.139412,27.680483,South Africa,Eastern Cape,Buffalo City Metropolitan Municipality,https://www.parkrun.co.za/kiddsbeach
Kiessee parkrun,51.519354,9.923981,Germany,Lower Saxony,,https://www.parkrun.com.de/kiessee
Kilkenny parkrun,52.648977,-7.245307,Ireland,Leinster,Kilkenny,https://www.parkrun.ie/kilkenny
Killarney House parkrun,52.057309,-9.516537,Ireland,Munster,Kerry,https://www.parkrun.ie/killarneyhouse
Killerton parkrun,50.792835,-3.455007,United Kingdom,England,Devon,https://www.parkrun.org.uk/killerton
Kimberley parkrun,-28.759379,24.826695,South Africa,Northern Cape,Frances Baard District Municipality,https://www.parkrun.co.za/kimberley
"King George V Playing Field parkrun, Cheltenham",51.901883,-2.110018,United Kingdom,England,Gloucestershire,https://www.parkrun.org.uk/kinggeorgevplayingfield
King’s Lynn parkrun,52.752762,0.407446,United Kingdom,England,Norfolk,https://www.parkrun.org.uk/kingslynn
Kingdom parkrun,51.162408,0.162768,United Kingdom,England,Kent,https://www.parkrun.org.uk/kingdom
Kingsbury Water parkrun,52.561983,-1.698718,United Kingdom,England,Warwickshire,https://www.parkrun.org.uk/kingsburywater
Kingscliff parkrun,-28.277477,153.578901,Australia,New South Wales,Tweed,https://www.parkrun.com.au/kingscliff
Kingston Park parkrun,-42.972838,147.309649,Australia,Tasmania,Kingborough,https://www.parkrun.com.au/kingstonpark
Kingston parkrun,51.426567,-0.309516,United Kingdom,England,Greater London,https://www.parkrun.org.uk/kingston
"Kingsway parkrun, Gloucester",51.821487,-2.272804,United Kingdom,England,Gloucestershire,https://www.parkrun.org.uk/kingsway
Kirkcaldy parkrun,56.104087,-3.169549,United Kingdom,Scotland,Fife,https://www.parkrun.org.uk/kirkcaldy
Kirkdale Reserve parkrun,-37.770512,144.983855,Australia,Victoria,Moreland,https://www.parkrun.com.au/kirkdalereserve
Kirkwall parkrun,58.982282,-2.948069,United Kingdom,Scotland,Orkney Islands,https://www.parkrun.org.uk/kirkwall
Kirra parkrun,-28.166758,153.522781,Australia,Queensland,Gold Coast,https://www.parkrun.com.au/kirra
Kiwanis parkrun,42.990553,-81.187066,Canada,Ontario,Middlesex County,https://www.parkrun.ca/kiwanis
Kleinplaas parkrun,-26.730736,27.126513,South Africa,North-West,Dr Kenneth Kaunda District Municipality,https://www.parkrun.co.za/kleinplaas
Klipspringer Lodge parkrun,-25.566254,31.062886,South Africa,Mpumalanga,Ehlanzeni District,https://www.parkrun.co.za/klipspringerlodge
KM Reedy Reserve parkrun,-38.021647,145.251726,Australia,Victoria,Casey,https://www.parkrun.com.au/kmreedyreserve
Knockanacree Woods parkrun,52.954397,-8.040969,Ireland,Munster,Tipperary,https://www.parkrun.ie/knockanacreewoods
Knockbracken Reservoir parkrun,54.524392,-5.892928,United Kingdom,Northern Ireland,Down,https://www.parkrun.org.uk/knockbrackenreservoir
Knocknacarra parkrun,53.265061,-9.134823,Ireland,Connacht,Galway,https://www.parkrun.ie/knocknacarra
Knowsley parkrun,53.411116,-2.811654,United Kingdom,England,Knowsley,https://www.parkrun.org.uk/knowsley
Knysna parkrun,-34.045911,23.06934,South Africa,Western Cape,Eden District Municipality,https://www.parkrun.co.za/knysna
Komani parkrun,-31.899593,26.889812,South Africa,Eastern Cape,Chris Hani District Municipality,https://www.parkrun.co.za/komani
Koonwarra parkrun,-38.547585,145.947772,Australia,Victoria,South Gippsland,https://www.parkrun.com.au/koonwarra
Koster parkrun,-25.872646,26.893939,South Africa,North-West,Bojanala Platinum,https://www.parkrun.co.za/koster
Kräherwald parkrun,48.783517,9.143246,Germany,Baden-Württemberg,Regierungsbezirk Stuttgart,https://www.parkrun.com.de/kraeherwald
Kralinbergh parkrun,-26.49073,30.029815,South Africa,Mpumalanga,Gert Sibande District Municipality,https://www.parkrun.co.za/kralinbergh
Kralingse Bos parkrun,51.934845,4.523562,Netherlands,South Holland,Rotterdam,https://www.parkrun.co.nl/kralingsebos
Kroonstad parkrun,-27.621467,27.228431,South Africa,Orange Free State,Fezile Dabi District Municipality,https://www.parkrun.co.za/kroonstad
Küchenholz parkrun,51.315327,12.337807,Germany,Saxony,,https://www.parkrun.com.de/kuechenholz
Kununurra parkrun,-15.791571,128.700113,Australia,Western Australia,Wyndham-East Kimberley,https://www.parkrun.com.au/kununurra
Kurt-Schumacher-Promenade parkrun,49.778058,9.931715,Germany,Bavaria,Lower Franconia,https://www.parkrun.com.de/kurtschumacherpromenade
Kwanele parkrun,-26.377953,28.148387,South Africa,Gauteng,Ekurhuleni Metropolitan Municipality,https://www.parkrun.co.za/kwanele
Ladysmith parkrun,-28.546259,29.769942,South Africa,KwaZulu-Natal,uThukela District Municipality,https://www.parkrun.co.za/ladysmith
Lahden satama parkrun,60.991561,25.645077,Finland,Paijat-Hame,Lahti,https://www.parkrun.fi/lahdensatama
Lahnwiesen parkrun,50.800726,8.767856,Germany,Hesse,Regierungsbezirk Gießen,https://www.parkrun.com.de/lahnwiesen
Lake Boga Foreshore parkrun,-35.45108,143.628251,Australia,Victoria,Swan Hill,https://www.parkrun.com.au/lakebogaforeshore
Lake Claremont parkrun,-31.97481,115.779507,Australia,Western Australia,Claremont,https://www.parkrun.com.au/lakeclaremont
Lake Joondalup parkrun,-31.744138,115.777144,Australia,Western Australia,Joondalup,https://www.parkrun.com.au/lakejoondalup
Lake Mac parkrun,-32.972596,151.612487,Australia,New South Wales,Lake Macquarie Shire,https://www.parkrun.com.au/lakemac
Lake Wallace parkrun,-37.033988,141.295153,Australia,Victoria,West Wimmera,https://www.parkrun.com.au/lakewallace
Lake2Lake Trail parkrun,-45.442115,167.688869,New Zealand,Southland,Southland District,https://www.parkrun.co.nz/lake2laketrail
Lakes Entrance parkrun,-37.879944,147.994104,Australia,Victoria,East Gippsland,https://www.parkrun.com.au/lakesentrance
